[
  {
    "model": "medical.medicalfacility",
    "pk": 1,
    "fields": {
      "name": "태림한의원",
      "type": "한의원",
      "address": "부산광역시 남구 용호로 161-1 (용호동)",
      "tel": "0516267582",
      "latitude": "35.11767165",
      "longitude": "129.1118016",
      "bus_stop": "버스정류장: 용호동우체국",
      "holiday_open": true,
      "is_partnered": false
    }
  },
  {
    "model": "medical.medicalfacility",
    "pk": 2,
    "fields": {
      "name": "태산한의원",
      "type": "한의원",
      "address": "부산광역시 연제구 중앙대로 1108 (연산동)",
      "tel": "0517101075",
      "latitude": "35.18687237",
      "longitude": "129.0818587",
      "bus_stop": "3,4호선 미남역 2번출구",
      "holiday_open": true,
      "is_partnered": false
    }
  },
  {
    "model": "medical.medicalfacility",
    "pk": 3,
    "fields": {
      "name": "태안한의원",
      "type": "한의원",
      "address": "부산광역시 강서구 대저로274번길 15 (대저1동)",
      "tel": "0519417575",
      "latitude": "35.21207175",
      "longitude": "128.981917",
      "bus_stop": "버스정류장: 강서구청",
      "holiday_open": true,
      "is_partnered": false
    }
  },
  {
    "model": "medical.medicalfacility",
    "pk": 4,
    "fields": {
      "name": "태양한의원",
      "type": "한의원",
      "address": "부산광역시 연제구 연수로 234, 2층 (연산동)",
      "tel": "0518527782",
      "latitude": "35.17322253",
      "longitude": "129.0961904",
      "bus_stop": "3호선 배산역 1번출구",
      "holiday_open": true,
      "is_partnered": false
    }
  },
  {
    "model": "medical.medicalfacility",
    "pk": 5,
    "fields": {
      "name": "태연한의원",
      "type": "한의원",
      "address": "부산광역시 금정구 부산대학로 10",
      "tel": "0515180019",
      "latitude": "35.23306744",
      "longitude": "129.0899759",
      "bus_stop": "부곡대우아파트 상가 1층",
      "holiday_open": true,
      "is_partnered": false
    }
  },
  {
    "model": "medical.medicalfacility",
    "pk": 6,
    "fields": {
      "name": "태인한의원",
      "type": "한의원",
      "address": "부산광역시 연제구 연수로 214 (연산동)",
      "tel": "0518520728",
      "latitude": "35.17346762",
      "longitude": "129.0940091",
      "bus_stop": "3호선 배산역 5번 출구",
      "holiday_open": true,
      "is_partnered": false
    }
  },
  {
    "model": "medical.medicalfacility",
    "pk": 7,
    "fields": {
      "name": "태종대한의원",
      "type": "한의원",
      "address": "부산광역시 영도구 동삼로 50 (동삼동)",
      "tel": "0514037866",
      "latitude": "35.07781267",
      "longitude": "129.0707001",
      "bus_stop": "버스정류장: 동삼동 부산은행",
      "holiday_open": true,
      "is_partnered": false
    }
  },
  {
    "model": "medical.medicalfacility",
    "pk": 8,
    "fields": {
      "name": "태흥당한의원",
      "type": "한의원",
      "address": "부산광역시 사하구 낙동남로 1414, 삼영빌딩 2,3층 (하단동)",
      "tel": "0512919188",
      "latitude": "35.1058775",
      "longitude": "128.9662705",
      "bus_stop": "1호선 하단역 4,6번출구",
      "holiday_open": true,
      "is_partnered": false
    }
  },
  {
    "model": "medical.medicalfacility",
    "pk": 9,
    "fields": {
      "name": "통도한의원",
      "type": "한의원",
      "address": "부산광역시 동래구 반송로 226 (안락동)",
      "tel": "0515327080",
      "latitude": "35.20067706",
      "longitude": "129.0983606",
      "bus_stop": "4호선 충렬사역 4번출구",
      "holiday_open": true,
      "is_partnered": false
    }
  },
  {
    "model": "medical.medicalfacility",
    "pk": 10,
    "fields": {
      "name": "통천한의원",
      "type": "한의원",
      "address": "부산광역시 연제구 고분로 21-2, 통천한의원 7,8층 (연산동)",
      "tel": "0518677175",
      "latitude": "35.18589849",
      "longitude": "129.0849201",
      "bus_stop": "1,3호선 연산역 10번출구",
      "holiday_open": true,
      "is_partnered": false
    }
  },
  {
    "model": "medical.medicalfacility",
    "pk": 11,
    "fields": {
      "name": "튼튼마디한의원",
      "type": "한의원",
      "address": "부산광역시 부산진구 가야대로 783, 6층 (부전동)",
      "tel": "0517445888",
      "latitude": "35.15806536",
      "longitude": "129.057231",
      "bus_stop": "1,2호선 서면역 2번출구",
      "holiday_open": true,
      "is_partnered": false
    }
  },
  {
    "model": "medical.medicalfacility",
    "pk": 12,
    "fields": {
      "name": "팔팔한의원",
      "type": "한의원",
      "address": "부산광역시 부산진구 연지로 4 (연지동)",
      "tel": "0518087888",
      "latitude": "35.17039255",
      "longitude": "129.050431",
      "bus_stop": "버스정류장: 연지치안센터",
      "holiday_open": true,
      "is_partnered": false
    }
  },
  {
    "model": "medical.medicalfacility",
    "pk": 13,
    "fields": {
      "name": "편백미즈한의원",
      "type": "한의원",
      "address": "부산광역시 수영구 수영로 596, 1층 (광안동)",
      "tel": "0517511075",
      "latitude": "35.15895638",
      "longitude": "129.113648",
      "bus_stop": "2호선 광안역 1번출구",
      "holiday_open": true,
      "is_partnered": false
    }
  },
  {
    "model": "medical.medicalfacility",
    "pk": 14,
    "fields": {
      "name": "편작한의원",
      "type": "한의원",
      "address": "부산광역시 북구 금곡대로 287, 5층 (화명동, 삼한골든뷰)",
      "tel": "0513632300",
      "latitude": "35.23418517",
      "longitude": "129.0133077",
      "bus_stop": "2호선 화명역 1번 출구",
      "holiday_open": true,
      "is_partnered": false
    }
  },
  {
    "model": "medical.medicalfacility",
    "pk": 15,
    "fields": {
      "name": "편작한의원",
      "type": "한의원",
      "address": "부산광역시 동구 초량상로 101 (초량동)",
      "tel": "0514652600",
      "latitude": "35.12061637",
      "longitude": "129.0390722",
      "bus_stop": "1호선 초량역 3번출구",
      "holiday_open": true,
      "is_partnered": false
    }
  },
  {
    "model": "medical.medicalfacility",
    "pk": 16,
    "fields": {
      "name": "편타한의원",
      "type": "한의원",
      "address": "부산광역시 부산진구 중앙번영로 8, 2층 (범천동)",
      "tel": "0516377008",
      "latitude": "35.14473551",
      "longitude": "129.0601201",
      "bus_stop": "버스정류장: 범천파출소",
      "holiday_open": true,
      "is_partnered": false
    }
  },
  {
    "model": "medical.medicalfacility",
    "pk": 17,
    "fields": {
      "name": "편한세상한의원",
      "type": "한의원",
      "address": "부산광역시 해운대구 세실로 64 (좌동, 화목데파트상가 202-1호)",
      "tel": "0517025033",
      "latitude": "35.17097853",
      "longitude": "129.1776682",
      "bus_stop": "2호선 장산역 2번출구",
      "holiday_open": true,
      "is_partnered": false
    }
  },
  {
    "model": "medical.medicalfacility",
    "pk": 18,
    "fields": {
      "name": "평거한의원",
      "type": "한의원",
      "address": "부산광역시 해운대구 좌동순환로 174 (좌동, 거성프라자 201호)",
      "tel": "0517031275",
      "latitude": "35.17762009",
      "longitude": "129.1750525",
      "bus_stop": "대림1차 버스정류장, 2호선 장산역 4번출구 도보 10분거리",
      "holiday_open": true,
      "is_partnered": false
    }
  },
  {
    "model": "medical.medicalfacility",
    "pk": 19,
    "fields": {
      "name": "평안한의원",
      "type": "한의원",
      "address": "부산광역시 수영구 수영로 709, 2층 (수영동)",
      "tel": "0515837510",
      "latitude": "35.16817481",
      "longitude": "129.1168804",
      "bus_stop": "2,3호선 수영역 3번출구",
      "holiday_open": true,
      "is_partnered": false
    }
  },
  {
    "model": "medical.medicalfacility",
    "pk": 20,
    "fields": {
      "name": "청유한의원",
      "type": "한의원",
      "address": "부산광역시 북구 만덕대로 126, 2층 (덕천동)",
      "tel": "0513358575",
      "latitude": "35.21297721",
      "longitude": "129.0184695",
      "bus_stop": "버스정류장: KT 구포지점/3호선 남산정역 5번출구",
      "holiday_open": true,
      "is_partnered": false
    }
  },
  {
    "model": "medical.medicalfacility",
    "pk": 21,
    "fields": {
      "name": "청춘한의원",
      "type": "한의원",
      "address": "부산광역시 부산진구 복지로 61 (개금동)",
      "tel": "0518927525",
      "latitude": "35.14745394",
      "longitude": "129.0207242",
      "bus_stop": "버스정류장: 부산백병원",
      "holiday_open": true,
      "is_partnered": false
    }
  },
  {
    "model": "medical.medicalfacility",
    "pk": 22,
    "fields": {
      "name": "청현한의원",
      "type": "한의원",
      "address": "부산광역시 동래구 반송로339번길 8 (명장동)",
      "tel": "0515235335",
      "latitude": "35.20978928",
      "longitude": "129.1033928",
      "bus_stop": "협진태양아파트 상가1동 2층",
      "holiday_open": true,
      "is_partnered": false
    }
  },
  {
    "model": "medical.medicalfacility",
    "pk": 23,
    "fields": {
      "name": "청희당한의원",
      "type": "한의원",
      "address": "부산광역시 수영구 수영로 582 (광안동)",
      "tel": "0515046484",
      "latitude": "35.15760679",
      "longitude": "129.1133771",
      "bus_stop": "2호선 광안역 3번출구",
      "holiday_open": true,
      "is_partnered": false
    }
  },
  {
    "model": "medical.medicalfacility",
    "pk": 24,
    "fields": {
      "name": "초량한의원",
      "type": "한의원",
      "address": "부산광역시 동구 초량중로 75, 2층 (초량동)",
      "tel": "0514421075",
      "latitude": "35.11866092",
      "longitude": "129.0390034",
      "bus_stop": "1호선 초량역 1번출구",
      "holiday_open": true,
      "is_partnered": false
    }
  },
  {
    "model": "medical.medicalfacility",
    "pk": 25,
    "fields": {
      "name": "초민한의원",
      "type": "한의원",
      "address": "부산광역시 서구 대영로 86 (동대신동1가)",
      "tel": "0512540032",
      "latitude": "35.11081372",
      "longitude": "129.0205187",
      "bus_stop": "1호선 동대신동역 7번출구",
      "holiday_open": true,
      "is_partnered": false
    }
  },
  {
    "model": "medical.medicalfacility",
    "pk": 26,
    "fields": {
      "name": "초심한의원",
      "type": "한의원",
      "address": "부산광역시 남구 황령대로319번가길 194 (대연동)",
      "tel": "0516231373",
      "latitude": "35.15028937",
      "longitude": "129.0894072",
      "bus_stop": "버스정류장: 대우그린1차아파트",
      "holiday_open": true,
      "is_partnered": false
    }
  },
  {
    "model": "medical.medicalfacility",
    "pk": 27,
    "fields": {
      "name": "초연한의원",
      "type": "한의원",
      "address": "부산광역시 부산진구 성지로 74, 1층 (초읍동)",
      "tel": "0515055060",
      "latitude": "35.17729014",
      "longitude": "129.0543513",
      "bus_stop": "3호선 사직역 3번출구",
      "holiday_open": true,
      "is_partnered": false
    }
  },
  {
    "model": "medical.medicalfacility",
    "pk": 28,
    "fields": {
      "name": "초우한의원",
      "type": "한의원",
      "address": "부산광역시 해운대구 구남로29번길 26 (중동)",
      "tel": "0517312993",
      "latitude": "35.16226087",
      "longitude": "129.1619561",
      "bus_stop": "해운대빌딩 602호",
      "holiday_open": true,
      "is_partnered": false
    }
  },
  {
    "model": "medical.medicalfacility",
    "pk": 29,
    "fields": {
      "name": "초읍한의원",
      "type": "한의원",
      "address": "부산광역시 부산진구 새싹로 247-2 (초읍동)",
      "tel": "0518050079",
      "latitude": "35.17821214",
      "longitude": "129.047831",
      "bus_stop": "버스정류장:초읍주민센터",
      "holiday_open": true,
      "is_partnered": false
    }
  },
  {
    "model": "medical.medicalfacility",
    "pk": 30,
    "fields": {
      "name": "초읍해맑은한의원",
      "type": "한의원",
      "address": "부산광역시 부산진구 성지로122번길 4 (초읍동)",
      "tel": "0518098774",
      "latitude": "35.1806715",
      "longitude": "129.0511124",
      "bus_stop": "버스정류장: 시민도서관 삼거리",
      "holiday_open": true,
      "is_partnered": false
    }
  },
  {
    "model": "medical.medicalfacility",
    "pk": 31,
    "fields": {
      "name": "초하한의원",
      "type": "한의원",
      "address": "부산광역시 금정구 중앙대로1945번길 60, 3층 (구서동)",
      "tel": "0515182388",
      "latitude": "35.25810735",
      "longitude": "129.0880148",
      "bus_stop": "1호선 두실역 7번출구",
      "holiday_open": true,
      "is_partnered": false
    }
  },
  {
    "model": "medical.medicalfacility",
    "pk": 32,
    "fields": {
      "name": "최경규한의원",
      "type": "한의원",
      "address": "부산광역시 해운대구 센텀중앙로 48, 에이스하이테크21 406호 (우동)",
      "tel": "0517475455",
      "latitude": "35.17302094",
      "longitude": "129.1298566",
      "bus_stop": " ",
      "holiday_open": true,
      "is_partnered": false
    }
  },
  {
    "model": "medical.medicalfacility",
    "pk": 33,
    "fields": {
      "name": "최시열한의원",
      "type": "한의원",
      "address": "부산광역시 부산진구 중앙대로 611 (범천동)",
      "tel": "0516460033",
      "latitude": "35.14739972",
      "longitude": "129.0585086",
      "bus_stop": "1호선 범내골역 5번출구",
      "holiday_open": true,
      "is_partnered": false
    }
  },
  {
    "model": "medical.medicalfacility",
    "pk": 34,
    "fields": {
      "name": "추경민한의원",
      "type": "한의원",
      "address": "부산광역시 부산진구 성지로 94 (초읍동)",
      "tel": "0518191275",
      "latitude": "35.17894887",
      "longitude": "129.0532969",
      "bus_stop": "버스정류장: 부산진고등학교",
      "holiday_open": true,
      "is_partnered": false
    }
  },
  {
    "model": "medical.medicalfacility",
    "pk": 35,
    "fields": {
      "name": "축복한의원",
      "type": "한의원",
      "address": "부산광역시 서구 충무대로 86 (암남동)",
      "tel": "0512563917",
      "latitude": "35.0795264",
      "longitude": "129.021532",
      "bus_stop": " ",
      "holiday_open": true,
      "is_partnered": false
    }
  },
  {
    "model": "medical.medicalfacility",
    "pk": 36,
    "fields": {
      "name": "충무한의원",
      "type": "한의원",
      "address": "부산광역시 서구 자갈치로 5 (충무동1가)",
      "tel": "0512448382",
      "latitude": "35.09644334",
      "longitude": "129.0250225",
      "bus_stop": " ",
      "holiday_open": true,
      "is_partnered": false
    }
  },
  {
    "model": "medical.medicalfacility",
    "pk": 37,
    "fields": {
      "name": "치앤추한의원",
      "type": "한의원",
      "address": "부산광역시 남구 용호로 153, 2,4층 (용호동)",
      "tel": "0516261959",
      "latitude": "35.1184901",
      "longitude": "129.1119992",
      "bus_stop": " ",
      "holiday_open": true,
      "is_partnered": false
    }
  },
  {
    "model": "medical.medicalfacility",
    "pk": 38,
    "fields": {
      "name": "카멜리아한의원",
      "type": "한의원",
      "address": "부산광역시 해운대구 마린시티1로 167, 202~5호 (우동, 현대카멜리아)",
      "tel": "0517437525",
      "latitude": "35.15750897",
      "longitude": "129.1498591",
      "bus_stop": "버스정류장:동백사거리",
      "holiday_open": true,
      "is_partnered": false
    }
  },
  {
    "model": "medical.medicalfacility",
    "pk": 39,
    "fields": {
      "name": "캐슬미르한의원",
      "type": "한의원",
      "address": "부산광역시 사하구 다대낙조2길 100 (다대동)",
      "tel": "0512621075",
      "latitude": "35.05538281",
      "longitude": "128.9648303",
      "bus_stop": "롯데캐슬몰운대 311호",
      "holiday_open": true,
      "is_partnered": false
    }
  },
  {
    "model": "medical.medicalfacility",
    "pk": 40,
    "fields": {
      "name": "코끼리한의원",
      "type": "한의원",
      "address": "부산광역시 금정구 부곡로 122-1, 2층 (부곡동)",
      "tel": "0515821611",
      "latitude": "35.2267927",
      "longitude": "129.0920999",
      "bus_stop": "버스정류장: 동원맨션 맞은편",
      "holiday_open": true,
      "is_partnered": false
    }
  },
  {
    "model": "medical.medicalfacility",
    "pk": 41,
    "fields": {
      "name": "코비한의원",
      "type": "한의원",
      "address": "부산광역시 부산진구 서면로 62-1, 13층 (부전동, 에이스메디칼타워)",
      "tel": "0513637525",
      "latitude": "35.15630957",
      "longitude": "129.0580424",
      "bus_stop": "1,2호선 서면역 7번출구/에이스메디칼타워 13층",
      "holiday_open": true,
      "is_partnered": false
    }
  },
  {
    "model": "medical.medicalfacility",
    "pk": 42,
    "fields": {
      "name": "코스비오창선한의원",
      "type": "한의원",
      "address": "부산광역시 사하구 낙동대로 369 당리동, 1층 (당리동)",
      "tel": "0512024445",
      "latitude": "35.10186765",
      "longitude": "128.9773232",
      "bus_stop": "버스정류장: 당리주민센터사거리",
      "holiday_open": true,
      "is_partnered": false
    }
  },
  {
    "model": "medical.medicalfacility",
    "pk": 43,
    "fields": {
      "name": "코스비한의원",
      "type": "한의원",
      "address": "부산광역시 기장군 정관면 정관덕산길 66",
      "tel": "0517274445",
      "latitude": "35.32189686",
      "longitude": "129.1866409",
      "bus_stop": "버스: 부산중앙중학교",
      "holiday_open": true,
      "is_partnered": false
    }
  },
  {
    "model": "medical.medicalfacility",
    "pk": 44,
    "fields": {
      "name": "코코한의원",
      "type": "한의원",
      "address": "부산광역시 해운대구 해운대로 802, 315호 (좌동, 웅신시네아트)",
      "tel": "0517028253",
      "latitude": "35.1691585",
      "longitude": "129.176665",
      "bus_stop": "웅신시네아트, 지하철 2호선 장산역 7,9번 출구",
      "holiday_open": true,
      "is_partnered": false
    }
  },
  {
    "model": "medical.medicalfacility",
    "pk": 45,
    "fields": {
      "name": "창해한의원",
      "type": "한의원",
      "address": "부산광역시 금정구 중앙대로 1927, 2층 (구서동)",
      "tel": "0515835445",
      "latitude": "35.25641207",
      "longitude": "129.091091",
      "bus_stop": "유림빌딩 4층",
      "holiday_open": true,
      "is_partnered": false
    }
  },
  {
    "model": "medical.medicalfacility",
    "pk": 46,
    "fields": {
      "name": "척마디한의원",
      "type": "한의원",
      "address": "부산광역시 연제구 중앙대로 1107, 연산동e메디칼 3층 (연산동)",
      "tel": "0517157787",
      "latitude": "35.18667283",
      "longitude": "129.0809887",
      "bus_stop": "1,3호선 연산역 5,7번 출구",
      "holiday_open": true,
      "is_partnered": false
    }
  },
  {
    "model": "medical.medicalfacility",
    "pk": 47,
    "fields": {
      "name": "척척의원,한의원",
      "type": "한의원",
      "address": "부산광역시 연제구 중앙대로 1111 (연산동, 10층 일부)",
      "tel": "0518537582",
      "latitude": "35.18674355",
      "longitude": "129.0811433",
      "bus_stop": "1,3호선 연산동 7번출구/위드타워 10층",
      "holiday_open": true,
      "is_partnered": false
    }
  },
  {
    "model": "medical.medicalfacility",
    "pk": 48,
    "fields": {
      "name": "천걸음한의원",
      "type": "한의원",
      "address": "부산광역시 남구 수영로 240-1, 이지스퀘어빌딩 6층 601호 (대연동)",
      "tel": "0517563888",
      "latitude": "35.13493292",
      "longitude": "129.0930428",
      "bus_stop": "2호선 대연역 1번출구",
      "holiday_open": true,
      "is_partnered": false
    }
  },
  {
    "model": "medical.medicalfacility",
    "pk": 49,
    "fields": {
      "name": "천리향한의원",
      "type": "한의원",
      "address": "부산광역시 수영구 수영로 765-1, 2층 (수영동, 채안빌딩)",
      "tel": "0517543388",
      "latitude": "35.166932",
      "longitude": "129.1226043",
      "bus_stop": "2호선 민락역 2번출구/채안빌딩 2층",
      "holiday_open": true,
      "is_partnered": false
    }
  },
  {
    "model": "medical.medicalfacility",
    "pk": 50,
    "fields": {
      "name": "천보경희한의원",
      "type": "한의원",
      "address": "부산광역시 동구 범일로90번길 8 (범일동)",
      "tel": "0516456777",
      "latitude": "35.13787379",
      "longitude": "129.0603602",
      "bus_stop": "1호선 범일역 2번출구",
      "holiday_open": true,
      "is_partnered": false
    }
  },
  {
    "model": "medical.medicalfacility",
    "pk": 51,
    "fields": {
      "name": "천지인한의원",
      "type": "한의원",
      "address": "부산광역시 남구 수영로 213, 1층 (대연동)",
      "tel": "0517911075",
      "latitude": "35.13526578",
      "longitude": "129.0901175",
      "bus_stop": "2호선 대연역 6번 출구",
      "holiday_open": true,
      "is_partnered": false
    }
  },
  {
    "model": "medical.medicalfacility",
    "pk": 52,
    "fields": {
      "name": "천지한의원",
      "type": "한의원",
      "address": "부산광역시 부산진구 복지로47번길 1 (개금동)",
      "tel": "0518938757",
      "latitude": "35.14894991",
      "longitude": "129.0207648",
      "bus_stop": "주원초등학교 앞",
      "holiday_open": true,
      "is_partnered": false
    }
  },
  {
    "model": "medical.medicalfacility",
    "pk": 53,
    "fields": {
      "name": "천초한의원",
      "type": "한의원",
      "address": "부산광역시 해운대구 반송로924번길 13, 2층 (반송동)",
      "tel": "0515457272",
      "latitude": "35.23223263",
      "longitude": "129.1555938",
      "bus_stop": "4호선 동부산대학 4번출구",
      "holiday_open": true,
      "is_partnered": false
    }
  },
  {
    "model": "medical.medicalfacility",
    "pk": 54,
    "fields": {
      "name": "청강한의원",
      "type": "한의원",
      "address": "부산광역시 동래구 명륜로187번길 47 (명륜동)",
      "tel": "0515577075",
      "latitude": "35.21094573",
      "longitude": "129.0801356",
      "bus_stop": " ",
      "holiday_open": true,
      "is_partnered": false
    }
  },
  {
    "model": "medical.medicalfacility",
    "pk": 55,
    "fields": {
      "name": "청남한의원",
      "type": "한의원",
      "address": "부산광역시 사상구 대동로 91 (학장동)",
      "tel": "0513240363",
      "latitude": "35.1383253",
      "longitude": "128.9778471",
      "bus_stop": "버스정류장:사상농협",
      "holiday_open": true,
      "is_partnered": false
    }
  },
  {
    "model": "medical.medicalfacility",
    "pk": 56,
    "fields": {
      "name": "청담약손한의원",
      "type": "한의원",
      "address": "부산광역시 사하구 낙동대로 211, 2층 (괴정동)",
      "tel": "0517140756",
      "latitude": "35.09994911",
      "longitude": "128.9937525",
      "bus_stop": "1호선 괴정역 10번 출구",
      "holiday_open": true,
      "is_partnered": false
    }
  },
  {
    "model": "medical.medicalfacility",
    "pk": 57,
    "fields": {
      "name": "청담한의원",
      "type": "한의원",
      "address": "부산광역시 연제구 거제천로 100 1,2층 (연산동)",
      "tel": "0518647577",
      "latitude": "35.18288665",
      "longitude": "129.0739447",
      "bus_stop": "버스정류장:부산시교육연수원",
      "holiday_open": true,
      "is_partnered": false
    }
  },
  {
    "model": "medical.medicalfacility",
    "pk": 58,
    "fields": {
      "name": "청담한의원",
      "type": "한의원",
      "address": "부산광역시 수영구 과정로 73, 4층 (망미동)",
      "tel": "0519199878",
      "latitude": "35.17782953",
      "longitude": "129.1069783",
      "bus_stop": "버스정류장: 망미중앙시장",
      "holiday_open": true,
      "is_partnered": false
    }
  },
  {
    "model": "medical.medicalfacility",
    "pk": 59,
    "fields": {
      "name": "청담한의원",
      "type": "한의원",
      "address": "부산광역시 남구 수영로 33 (문현동, 2층)",
      "tel": "0516318275",
      "latitude": "35.13717096",
      "longitude": "129.0715875",
      "bus_stop": "2호선 지게골역 4번 출구",
      "holiday_open": true,
      "is_partnered": false
    }
  },
  {
    "model": "medical.medicalfacility",
    "pk": 60,
    "fields": {
      "name": "청담한의원",
      "type": "한의원",
      "address": "부산광역시 남구 용호로 54, 4층 402,403호 (용호동, 대영빌딩)",
      "tel": "0516277514",
      "latitude": "35.12616442",
      "longitude": "129.109657",
      "bus_stop": "남부운전시험장 사거리 쪽 KEB하나은행 앞 대영빌딩",
      "holiday_open": true,
      "is_partnered": false
    }
  },
  {
    "model": "medical.medicalfacility",
    "pk": 61,
    "fields": {
      "name": "청담한의원",
      "type": "한의원",
      "address": "부산광역시 사하구 다대로 556, 2층 (다대동)",
      "tel": "0512640220",
      "latitude": "35.0567886",
      "longitude": "128.9705254",
      "bus_stop": "1호선 다대포항역 1번 출구",
      "holiday_open": true,
      "is_partnered": false
    }
  },
  {
    "model": "medical.medicalfacility",
    "pk": 62,
    "fields": {
      "name": "청랑한의원",
      "type": "한의원",
      "address": "부산광역시 동래구 안연로 88, 2층 (안락동)",
      "tel": "0515227975",
      "latitude": "35.19529855",
      "longitude": "129.0980575",
      "bus_stop": "버스정류장: 석촌아파트앞",
      "holiday_open": true,
      "is_partnered": false
    }
  },
  {
    "model": "medical.medicalfacility",
    "pk": 63,
    "fields": {
      "name": "청림한의원",
      "type": "한의원",
      "address": "부산광역시 동래구 아시아드대로 235 (온천동)",
      "tel": "0515070075",
      "latitude": "35.20503927",
      "longitude": "129.0672081",
      "bus_stop": "3,4호선 미남역 1,3번출구",
      "holiday_open": true,
      "is_partnered": false
    }
  },
  {
    "model": "medical.medicalfacility",
    "pk": 64,
    "fields": {
      "name": "청명한의원",
      "type": "한의원",
      "address": "부산광역시 중구 자갈치로 70 (남포동4가)",
      "tel": "0512578002",
      "latitude": "35.0973774",
      "longitude": "129.0317904",
      "bus_stop": "버스정류장: 남포동 주민센터",
      "holiday_open": true,
      "is_partnered": false
    }
  },
  {
    "model": "medical.medicalfacility",
    "pk": 65,
    "fields": {
      "name": "청보한의원",
      "type": "한의원",
      "address": "부산광역시 북구 백양대로 1203-1, 3층 (구포동)",
      "tel": "0513371771",
      "latitude": "35.20964547",
      "longitude": "129.0051386",
      "bus_stop": "2,4호선 덕천역 1번 출구",
      "holiday_open": true,
      "is_partnered": false
    }
  },
  {
    "model": "medical.medicalfacility",
    "pk": 66,
    "fields": {
      "name": "청산한의원",
      "type": "한의원",
      "address": "부산광역시 부산진구 동평로 111 (부암동)",
      "tel": "0518179933",
      "latitude": "35.16612528",
      "longitude": "129.0414737",
      "bus_stop": "버스정류장: 당감사거리",
      "holiday_open": true,
      "is_partnered": false
    }
  },
  {
    "model": "medical.medicalfacility",
    "pk": 67,
    "fields": {
      "name": "청심당한의원",
      "type": "한의원",
      "address": "부산광역시 연제구 과정로 212, 2층 (연산동)",
      "tel": "0517521054",
      "latitude": "35.1879697",
      "longitude": "129.1040636",
      "bus_stop": "버스정류장:연산9동 주민센터 맞은편",
      "holiday_open": true,
      "is_partnered": false
    }
  },
  {
    "model": "medical.medicalfacility",
    "pk": 68,
    "fields": {
      "name": "청심한의원",
      "type": "한의원",
      "address": "부산광역시 북구 만덕대로 34-1, 2,3층 (덕천동)",
      "tel": "0513310121",
      "latitude": "35.21081309",
      "longitude": "129.0088872",
      "bus_stop": "2,3호선 덕천역 9번출구",
      "holiday_open": true,
      "is_partnered": false
    }
  },
  {
    "model": "medical.medicalfacility",
    "pk": 69,
    "fields": {
      "name": "청아인한의원",
      "type": "한의원",
      "address": "부산광역시 중구 대청로 79-1 (대청동3가)",
      "tel": "0514698485",
      "latitude": "35.10310974",
      "longitude": "129.0286818",
      "bus_stop": "버스정류장: 대청사거리",
      "holiday_open": true,
      "is_partnered": false
    }
  },
  {
    "model": "medical.medicalfacility",
    "pk": 70,
    "fields": {
      "name": "청암한의원",
      "type": "한의원",
      "address": "부산광역시 동구 범일로 97 (범일동)",
      "tel": "0516356567",
      "latitude": "35.13866072",
      "longitude": "129.0590207",
      "bus_stop": "1호선 범일동 3번출구/국민은행 맞은편",
      "holiday_open": true,
      "is_partnered": false
    }
  },
  {
    "model": "medical.medicalfacility",
    "pk": 71,
    "fields": {
      "name": "지성한의원",
      "type": "한의원",
      "address": "부산광역시 수영구 수영로741번길 9 (수영동)",
      "tel": "0517510148",
      "latitude": "35.16877109",
      "longitude": "129.1206318",
      "bus_stop": "2호선 민락역 4번출구",
      "holiday_open": true,
      "is_partnered": false
    }
  },
  {
    "model": "medical.medicalfacility",
    "pk": 72,
    "fields": {
      "name": "지성한의원",
      "type": "한의원",
      "address": "부산광역시 동래구 미남로132번길 17 (온천동,지산빌딩 3층)",
      "tel": "0515039947",
      "latitude": "35.20610894",
      "longitude": "129.0706047",
      "bus_stop": "3,4호선 미남역 8번출구/지산빌딩 3층",
      "holiday_open": true,
      "is_partnered": false
    }
  },
  {
    "model": "medical.medicalfacility",
    "pk": 73,
    "fields": {
      "name": "지음한의원",
      "type": "한의원",
      "address": "부산광역시 동래구 연안로51번길 6, 1,2층 (안락동)",
      "tel": "0515311075",
      "latitude": "35.19256412",
      "longitude": "129.1073101",
      "bus_stop": "안남초등학교 맞은편",
      "holiday_open": true,
      "is_partnered": false
    }
  },
  {
    "model": "medical.medicalfacility",
    "pk": 74,
    "fields": {
      "name": "지초한의원",
      "type": "한의원",
      "address": "부산광역시 부산진구 엄광로 31, 2층 일부 (개금동)",
      "tel": "0518950388",
      "latitude": "35.14830168",
      "longitude": "129.0196044",
      "bus_stop": "버스정류장: 백병원 입구",
      "holiday_open": true,
      "is_partnered": false
    }
  },
  {
    "model": "medical.medicalfacility",
    "pk": 75,
    "fields": {
      "name": "진명한의원",
      "type": "한의원",
      "address": "부산광역시 수영구 연수로 375 (수영동)",
      "tel": "0517549797",
      "latitude": "35.17025443",
      "longitude": "129.1112884",
      "bus_stop": "3호선 망미역 2번출구",
      "holiday_open": true,
      "is_partnered": false
    }
  },
  {
    "model": "medical.medicalfacility",
    "pk": 76,
    "fields": {
      "name": "진성한의원",
      "type": "한의원",
      "address": "부산광역시 중구 대청로134번길 6 (동광동3가)",
      "tel": "0512542010",
      "latitude": "35.10232903",
      "longitude": "129.0346169",
      "bus_stop": "1호선 중앙역 3,5번출구",
      "holiday_open": true,
      "is_partnered": false
    }
  },
  {
    "model": "medical.medicalfacility",
    "pk": 77,
    "fields": {
      "name": "진수한의원",
      "type": "한의원",
      "address": "부산광역시 해운대구 아랫반송로21번길 51, 3층 (반송동, 동래농협반송지점)",
      "tel": "0515459945",
      "latitude": "35.22670431",
      "longitude": "129.1483311",
      "bus_stop": "버스정류장: 동래농협반송지점 3층",
      "holiday_open": true,
      "is_partnered": false
    }
  },
  {
    "model": "medical.medicalfacility",
    "pk": 78,
    "fields": {
      "name": "진한의원",
      "type": "한의원",
      "address": "부산광역시 금정구 온천장로125번길 6 (장전동, 영승빌딩202호)",
      "tel": "0515181275",
      "latitude": "35.22231546",
      "longitude": "129.084801",
      "bus_stop": "1호선 온천장역 5번출구",
      "holiday_open": true,
      "is_partnered": false
    }
  },
  {
    "model": "medical.medicalfacility",
    "pk": 79,
    "fields": {
      "name": "진한의원",
      "type": "한의원",
      "address": "부산광역시 북구 효열로 222, 3층 (금곡동, 화목빌딩)",
      "tel": "0513635453",
      "latitude": "35.26363391",
      "longitude": "129.0196754",
      "bus_stop": "버스정류장: 화목아파트",
      "holiday_open": true,
      "is_partnered": false
    }
  },
  {
    "model": "medical.medicalfacility",
    "pk": 80,
    "fields": {
      "name": "진한의원",
      "type": "한의원",
      "address": "부산광역시 해운대구 해운대로 794, 601호 (좌동, 삼정엘리움)",
      "tel": "0517140040",
      "latitude": "35.16879795",
      "longitude": "129.1757377",
      "bus_stop": "2호선 장산역 11번출구/삼정엘리움 601호",
      "holiday_open": true,
      "is_partnered": false
    }
  },
  {
    "model": "medical.medicalfacility",
    "pk": 81,
    "fields": {
      "name": "차앤차 미래솔한의원",
      "type": "한의원",
      "address": "부산광역시 부산진구 서면로 51, 9층 (부전동, 대성빌딩 )",
      "tel": "0518061649",
      "latitude": "35.1554123",
      "longitude": "129.0575698",
      "bus_stop": "1,2호선 서면역 5,7번출구",
      "holiday_open": true,
      "is_partnered": false
    }
  },
  {
    "model": "medical.medicalfacility",
    "pk": 82,
    "fields": {
      "name": "차한의원",
      "type": "한의원",
      "address": "부산광역시 서구 구덕로333번길 53 (서대신동3가)",
      "tel": "0512437666",
      "latitude": "35.11246848",
      "longitude": "129.0134638",
      "bus_stop": " ",
      "holiday_open": true,
      "is_partnered": false
    }
  },
  {
    "model": "medical.medicalfacility",
    "pk": 83,
    "fields": {
      "name": "홍상철한의원",
      "type": "한의원",
      "address": "부산광역시 영도구 태종로113번길 33 (봉래동3가)",
      "tel": "0514181575",
      "latitude": "35.09242564",
      "longitude": "129.043715",
      "bus_stop": "버스정류장: 해동병원",
      "holiday_open": true,
      "is_partnered": false
    }
  },
  {
    "model": "medical.medicalfacility",
    "pk": 84,
    "fields": {
      "name": "홍인한의원",
      "type": "한의원",
      "address": "부산광역시 동래구 명륜로 109 (명륜동)",
      "tel": "0515524294",
      "latitude": "35.20362985",
      "longitude": "129.0827841",
      "bus_stop": "4호선 수안역 3번출구",
      "holiday_open": true,
      "is_partnered": false
    }
  },
  {
    "model": "medical.medicalfacility",
    "pk": 85,
    "fields": {
      "name": "홍일한의원",
      "type": "한의원",
      "address": "부산광역시 중구 중구로33번길 45-1 (부평동2가)",
      "tel": "0512453463",
      "latitude": "35.10093893",
      "longitude": "129.0253092",
      "bus_stop": "버스정류장: 보수동 책방골목 맞은편",
      "holiday_open": true,
      "is_partnered": false
    }
  },
  {
    "model": "medical.medicalfacility",
    "pk": 86,
    "fields": {
      "name": "홍제한의원",
      "type": "한의원",
      "address": "부산광역시 북구 백양대로 1196, 2층 (구포동)",
      "tel": "0513378400",
      "latitude": "35.20905597",
      "longitude": "129.0055706",
      "bus_stop": "2,3호선 덕천역 2번출구",
      "holiday_open": true,
      "is_partnered": false
    }
  },
  {
    "model": "medical.medicalfacility",
    "pk": 87,
    "fields": {
      "name": "화령한의원",
      "type": "한의원",
      "address": "부산광역시 북구 금곡대로 312, 2층 (화명동, 한마음메디칼센터)",
      "tel": "0513628275",
      "latitude": "35.23597919",
      "longitude": "129.0143518",
      "bus_stop": "2호선 화명역 4,6번출구/한마음메디컬센터 2층",
      "holiday_open": true,
      "is_partnered": false
    }
  },
  {
    "model": "medical.medicalfacility",
    "pk": 88,
    "fields": {
      "name": "화명한의원",
      "type": "한의원",
      "address": "부산광역시 북구 금곡대로 328 (화명동)",
      "tel": "0513359811",
      "latitude": "35.23762956",
      "longitude": "129.0142515",
      "bus_stop": " ",
      "holiday_open": true,
      "is_partnered": false
    }
  },
  {
    "model": "medical.medicalfacility",
    "pk": 89,
    "fields": {
      "name": "화목한의원",
      "type": "한의원",
      "address": "부산광역시 사상구 백양대로 905, 2층 (모라동)",
      "tel": "0513113135",
      "latitude": "35.1870418",
      "longitude": "128.990542",
      "bus_stop": "버스정류장:신모라교차로",
      "holiday_open": true,
      "is_partnered": false
    }
  },
  {
    "model": "medical.medicalfacility",
    "pk": 90,
    "fields": {
      "name": "화목한의원",
      "type": "한의원",
      "address": "부산광역시 수영구 연수로 421, 지하1층, 1층 (수영동)",
      "tel": "0517552538",
      "latitude": "35.16781389",
      "longitude": "129.1149654",
      "bus_stop": "2,3호선 수영역 2번출구",
      "holiday_open": true,
      "is_partnered": false
    }
  },
  {
    "model": "medical.medicalfacility",
    "pk": 91,
    "fields": {
      "name": "화성한의원",
      "type": "한의원",
      "address": "부산광역시 기장군 기장읍 차성로288번길 48, 1층 (기장읍)",
      "tel": "0517214128",
      "latitude": "35.24288784",
      "longitude": "129.2161304",
      "bus_stop": "인근 지하철역 동해남부선 기장역",
      "holiday_open": true,
      "is_partnered": false
    }
  },
  {
    "model": "medical.medicalfacility",
    "pk": 92,
    "fields": {
      "name": "화인한의원",
      "type": "한의원",
      "address": "부산광역시 동구 진성로 18, 2층 (수정동)",
      "tel": "0514671075",
      "latitude": "35.13033954",
      "longitude": "129.0477761",
      "bus_stop": "1호선 부산진역 7번 출구/버스정류장: 부산진세무소",
      "holiday_open": true,
      "is_partnered": false
    }
  },
  {
    "model": "medical.medicalfacility",
    "pk": 93,
    "fields": {
      "name": "화접몽한의원",
      "type": "한의원",
      "address": "부산광역시 부산진구 서면로 74, 아이온시티빌딩 11층 1102호 (부전동)",
      "tel": "0517117836",
      "latitude": "35.15721009",
      "longitude": "129.0581419",
      "bus_stop": "버스정류장: 서면시장",
      "holiday_open": true,
      "is_partnered": false
    }
  },
  {
    "model": "medical.medicalfacility",
    "pk": 94,
    "fields": {
      "name": "활수 한의원",
      "type": "한의원",
      "address": "부산광역시 남구 석포로83번길 1 (대연동)",
      "tel": "0516263255",
      "latitude": "35.12535388",
      "longitude": "129.0887345",
      "bus_stop": "버스정류장: 대연파크푸르지오아파트 맞은편",
      "holiday_open": true,
      "is_partnered": false
    }
  },
  {
    "model": "medical.medicalfacility",
    "pk": 95,
    "fields": {
      "name": "활인한의원",
      "type": "한의원",
      "address": "부산광역시 강서구 공항로811번길 43 (대저2동)",
      "tel": "0519739737",
      "latitude": "35.18008621",
      "longitude": "128.9554127",
      "bus_stop": "버스정류장:대저2동 우체국",
      "holiday_open": true,
      "is_partnered": false
    }
  },
  {
    "model": "medical.medicalfacility",
    "pk": 96,
    "fields": {
      "name": "황금약손한의원",
      "type": "한의원",
      "address": "부산광역시 북구 금곡대로303번길 22, 2층 (화명동, 정능빌딩)",
      "tel": "0517150175",
      "latitude": "35.23573209",
      "longitude": "129.0126458",
      "bus_stop": "2호선 화명역 3번 출구",
      "holiday_open": true,
      "is_partnered": false
    }
  },
  {
    "model": "medical.medicalfacility",
    "pk": 97,
    "fields": {
      "name": "황성윤한의원",
      "type": "한의원",
      "address": "부산광역시 사상구 학감대로 124, 1층 (학장동)",
      "tel": "0513139743",
      "latitude": "35.1420229",
      "longitude": "128.9887116",
      "bus_stop": "버스정류장: 학장교차로",
      "holiday_open": true,
      "is_partnered": false
    }
  },
  {
    "model": "medical.medicalfacility",
    "pk": 98,
    "fields": {
      "name": "효당한의원",
      "type": "한의원",
      "address": "부산광역시 금정구 부곡로 104, 1층 (부곡동)",
      "tel": "0515838275",
      "latitude": "35.22500185",
      "longitude": "129.0917793",
      "bus_stop": "버스정류장: 부산정보관광고등학교",
      "holiday_open": true,
      "is_partnered": false
    }
  },
  {
    "model": "medical.medicalfacility",
    "pk": 99,
    "fields": {
      "name": "효성한의원",
      "type": "한의원",
      "address": "부산광역시 남구 용호로 153, 1층 (용호동)",
      "tel": "0517101875",
      "latitude": "35.1184901",
      "longitude": "129.1119992",
      "bus_stop": "버스정류장:용호사거리",
      "holiday_open": true,
      "is_partnered": false
    }
  },
  {
    "model": "medical.medicalfacility",
    "pk": 100,
    "fields": {
      "name": "효원한의원",
      "type": "한의원",
      "address": "부산광역시 동래구 사직로70번길 50 (사직동)",
      "tel": "0515065358",
      "latitude": "35.19747035",
      "longitude": "129.0576652",
      "bus_stop": "버스정류장: 사직쌍용예가아파트",
      "holiday_open": true,
      "is_partnered": false
    }
  },
  {
    "model": "medical.medicalfacility",
    "pk": 101,
    "fields": {
      "name": "후생한의원",
      "type": "한의원",
      "address": "부산광역시 금정구 서부로 8 (서동)",
      "tel": "0515276633",
      "latitude": "35.21519568",
      "longitude": "129.1045864",
      "bus_stop": "버스정류장:제3치안센터 4호선 서동역 1,3번 출구",
      "holiday_open": true,
      "is_partnered": false
    }
  },
  {
    "model": "medical.medicalfacility",
    "pk": 102,
    "fields": {
      "name": "후한의원",
      "type": "한의원",
      "address": "부산광역시 부산진구 서면로 59, 11층~12층 (부전동)",
      "tel": "0518032075",
      "latitude": "35.15600744",
      "longitude": "129.0575446",
      "bus_stop": "1,2 호선 서면역 7번출구",
      "holiday_open": true,
      "is_partnered": false
    }
  },
  {
    "model": "medical.medicalfacility",
    "pk": 103,
    "fields": {
      "name": "훈훈한의원",
      "type": "한의원",
      "address": "부산광역시 부산진구 대학로 12, 5층 (가야동)",
      "tel": "0518981205",
      "latitude": "35.15431029",
      "longitude": "129.0370096",
      "bus_stop": "2호선 동의대역 2번 출구",
      "holiday_open": true,
      "is_partnered": false
    }
  },
  {
    "model": "medical.medicalfacility",
    "pk": 104,
    "fields": {
      "name": "휴한의원",
      "type": "한의원",
      "address": "부산광역시 연제구 중앙대로 1090, 프라임시티 702호 (연산동)",
      "tel": "0518667500",
      "latitude": "35.18479728",
      "longitude": "129.0810626",
      "bus_stop": "2,3호선 연산역 2번 출구",
      "holiday_open": true,
      "is_partnered": false
    }
  },
  {
    "model": "medical.medicalfacility",
    "pk": 105,
    "fields": {
      "name": "흥재연합한의원",
      "type": "한의원",
      "address": "부산광역시 해운대구 좌동순환로 178, 2층 (좌동, 한솔빌딩)",
      "tel": "0517030030",
      "latitude": "35.17749834",
      "longitude": "129.1755228",
      "bus_stop": "버스정류장: 대동상가",
      "holiday_open": true,
      "is_partnered": false
    }
  },
  {
    "model": "medical.medicalfacility",
    "pk": 106,
    "fields": {
      "name": "힐링한의원",
      "type": "한의원",
      "address": "부산광역시 해운대구 해운대로 814, B동 422호 (좌동, 세종월드프라자)",
      "tel": "0517023375",
      "latitude": "35.1696715",
      "longitude": "129.1776713",
      "bus_stop": " ",
      "holiday_open": true,
      "is_partnered": false
    }
  },
  {
    "model": "medical.medicalfacility",
    "pk": 107,
    "fields": {
      "name": "향기로운 한의원",
      "type": "한의원",
      "address": "부산광역시 남구 못골로12번길 35, 5층 501~503호 (대연동)",
      "tel": "0516361395",
      "latitude": "35.13550331",
      "longitude": "129.0857535",
      "bus_stop": "1호선 시청역 8번출구",
      "holiday_open": true,
      "is_partnered": false
    }
  },
  {
    "model": "medical.medicalfacility",
    "pk": 108,
    "fields": {
      "name": "허균한의원",
      "type": "한의원",
      "address": "부산광역시 남구 수영로219번길 15 (대연동)",
      "tel": "0516288275",
      "latitude": "35.13573237",
      "longitude": "129.0903542",
      "bus_stop": "2호선 대연역 6번출구/흥진빌딩1층",
      "holiday_open": true,
      "is_partnered": false
    }
  },
  {
    "model": "medical.medicalfacility",
    "pk": 109,
    "fields": {
      "name": "허리인하이키한의원",
      "type": "한의원",
      "address": "부산광역시 연제구 중앙대로 1052, 1,3층 (연산동)",
      "tel": "0518521079",
      "latitude": "35.18200557",
      "longitude": "129.0787529",
      "bus_stop": "1호선 시청역 8번 출구",
      "holiday_open": true,
      "is_partnered": false
    }
  },
  {
    "model": "medical.medicalfacility",
    "pk": 110,
    "fields": {
      "name": "허성욱한의원",
      "type": "한의원",
      "address": "부산광역시 연제구 중앙대로 1171-4 1~3층",
      "tel": "0518533030",
      "latitude": "35.19213704",
      "longitude": "129.0797764",
      "bus_stop": "1호선 교대역 2번출구",
      "holiday_open": true,
      "is_partnered": false
    }
  },
  {
    "model": "medical.medicalfacility",
    "pk": 111,
    "fields": {
      "name": "허재규한의원",
      "type": "한의원",
      "address": "부산광역시 수영구 남천동로 36, 3층303호 (남천동)",
      "tel": "0516246999",
      "latitude": "35.14119917",
      "longitude": "129.1116719",
      "bus_stop": "버스정류장: 삼익비치우편물취급국",
      "holiday_open": true,
      "is_partnered": false
    }
  },
  {
    "model": "medical.medicalfacility",
    "pk": 112,
    "fields": {
      "name": "허태율한의원",
      "type": "한의원",
      "address": "부산광역시 금정구 구서로 24, 2층 (구서동, 농협)",
      "tel": "0515136644",
      "latitude": "35.246935",
      "longitude": "129.0884916",
      "bus_stop": "1호선 구서역 1번출구/농협2층",
      "holiday_open": true,
      "is_partnered": false
    }
  },
  {
    "model": "medical.medicalfacility",
    "pk": 113,
    "fields": {
      "name": "허한의원",
      "type": "한의원",
      "address": "부산광역시 해운대구 세실로 43, 701호 (좌동, 경동코아)",
      "tel": "0517468869",
      "latitude": "35.16876256",
      "longitude": "129.1784486",
      "bus_stop": "2호선 장산역 3번출구/경동코아 701호",
      "holiday_open": true,
      "is_partnered": false
    }
  },
  {
    "model": "medical.medicalfacility",
    "pk": 114,
    "fields": {
      "name": "현강한의원",
      "type": "한의원",
      "address": "부산광역시 동구 고관로 120 (수정동)",
      "tel": "0517444080",
      "latitude": "35.12916549",
      "longitude": "129.046993",
      "bus_stop": " ",
      "holiday_open": true,
      "is_partnered": false
    }
  },
  {
    "model": "medical.medicalfacility",
    "pk": 115,
    "fields": {
      "name": "현당한의원",
      "type": "한의원",
      "address": "부산광역시 사상구 사상로 241 (괘법동, 참조은한의원)",
      "tel": "0513266888",
      "latitude": "35.16639456",
      "longitude": "128.9823438",
      "bus_stop": "2호선 사상역 6번출구/마루빌딩1층",
      "holiday_open": true,
      "is_partnered": false
    }
  },
  {
    "model": "medical.medicalfacility",
    "pk": 116,
    "fields": {
      "name": "현덕한의원",
      "type": "한의원",
      "address": "부산광역시 수영구 수영로 708, 2층 (광안동)",
      "tel": "0517551075",
      "latitude": "35.16771466",
      "longitude": "129.116929",
      "bus_stop": "2,3호선 수영역 5번출구",
      "holiday_open": true,
      "is_partnered": false
    }
  },
  {
    "model": "medical.medicalfacility",
    "pk": 117,
    "fields": {
      "name": "현앤정일침한의원",
      "type": "한의원",
      "address": "부산광역시 연제구 중앙대로 1077 (연산동, 9층일부)",
      "tel": "0518641789",
      "latitude": "35.18431236",
      "longitude": "129.0798485",
      "bus_stop": "1,3호선 연산역 1번출구",
      "holiday_open": true,
      "is_partnered": false
    }
  },
  {
    "model": "medical.medicalfacility",
    "pk": 118,
    "fields": {
      "name": "현창한의원",
      "type": "한의원",
      "address": "부산광역시 남구 수영로 21, 2층 (문현동)",
      "tel": "0516387900",
      "latitude": "35.13727468",
      "longitude": "129.0700526",
      "bus_stop": "버스정류장:문현교차로 하차",
      "holiday_open": true,
      "is_partnered": false
    }
  },
  {
    "model": "medical.medicalfacility",
    "pk": 119,
    "fields": {
      "name": "혜광편작한의원",
      "type": "한의원",
      "address": "부산광역시 수영구 수미로 59 (망미동)",
      "tel": "0517554600",
      "latitude": "35.17337292",
      "longitude": "129.1171931",
      "bus_stop": " ",
      "holiday_open": true,
      "is_partnered": false
    }
  },
  {
    "model": "medical.medicalfacility",
    "pk": 120,
    "fields": {
      "name": "혜민서한의원",
      "type": "한의원",
      "address": "부산광역시 동구 범일로 108-1, 2층 (범일동)",
      "tel": "0516420552",
      "latitude": "35.13967361",
      "longitude": "129.0596703",
      "bus_stop": "1호선 범일역 1번출구",
      "holiday_open": true,
      "is_partnered": false
    }
  },
  {
    "model": "medical.medicalfacility",
    "pk": 121,
    "fields": {
      "name": "혜민한의원",
      "type": "한의원",
      "address": "부산광역시 서구 구덕로322번길 15 (동대신동3가)",
      "tel": "0512444363",
      "latitude": "35.11284205",
      "longitude": "129.017286",
      "bus_stop": "1호선 동대신역 1,2번 출구",
      "holiday_open": true,
      "is_partnered": false
    }
  },
  {
    "model": "medical.medicalfacility",
    "pk": 122,
    "fields": {
      "name": "혜산한의원",
      "type": "한의원",
      "address": "부산광역시 남구 수영로 88 (문현동)",
      "tel": "0516430975",
      "latitude": "35.13426163",
      "longitude": "129.0764212",
      "bus_stop": "2호선 지게골역 1번출구",
      "holiday_open": true,
      "is_partnered": false
    }
  },
  {
    "model": "medical.medicalfacility",
    "pk": 123,
    "fields": {
      "name": "혜인 한의원",
      "type": "한의원",
      "address": "부산광역시 남구 수영로 256 (대연동)",
      "tel": "0516285213",
      "latitude": "35.13511742",
      "longitude": "129.0945704",
      "bus_stop": "2호선 대연역 1번출구",
      "holiday_open": true,
      "is_partnered": false
    }
  },
  {
    "model": "medical.medicalfacility",
    "pk": 124,
    "fields": {
      "name": "혜화한의원",
      "type": "한의원",
      "address": "부산광역시 동구 중앙대로 247 (초량동)",
      "tel": "0514685522",
      "latitude": "35.11910801",
      "longitude": "129.0415214",
      "bus_stop": "1호선 초량역 1번 출구",
      "holiday_open": true,
      "is_partnered": false
    }
  },
  {
    "model": "medical.medicalfacility",
    "pk": 125,
    "fields": {
      "name": "호당한의원",
      "type": "한의원",
      "address": "부산광역시 북구 덕천로 235, 2층 (만덕동)",
      "tel": "0519040242",
      "latitude": "35.21082495",
      "longitude": "129.0299308",
      "bus_stop": "만덕역 1번출구 만덕 제 3동 주민센터 앞",
      "holiday_open": true,
      "is_partnered": false
    }
  },
  {
    "model": "medical.medicalfacility",
    "pk": 126,
    "fields": {
      "name": "호림한의원",
      "type": "한의원",
      "address": "부산광역시 사하구 다대로130번길 15 (신평동)",
      "tel": "0512933006",
      "latitude": "35.09114014",
      "longitude": "128.9774143",
      "bus_stop": "버스정류장:신평 새마을금고 근처",
      "holiday_open": true,
      "is_partnered": false
    }
  },
  {
    "model": "medical.medicalfacility",
    "pk": 127,
    "fields": {
      "name": "호박한의원",
      "type": "한의원",
      "address": "부산광역시 남구 용호로 147, 6,7층 (용호동, 종합검진센타)",
      "tel": "0516210617",
      "latitude": "35.11909305",
      "longitude": "129.1121062",
      "bus_stop": "부산은행 용호동 지점",
      "holiday_open": true,
      "is_partnered": false
    }
  },
  {
    "model": "medical.medicalfacility",
    "pk": 128,
    "fields": {
      "name": "호산한의원",
      "type": "한의원",
      "address": "부산광역시 동래구 충렬대로107번길 92-4, 2층 (온천동)",
      "tel": "0515540007",
      "latitude": "35.21072414",
      "longitude": "129.0736417",
      "bus_stop": "3,4호선 미남역 14번출구",
      "holiday_open": true,
      "is_partnered": false
    }
  },
  {
    "model": "medical.medicalfacility",
    "pk": 129,
    "fields": {
      "name": "호암한의원",
      "type": "한의원",
      "address": "부산광역시 연제구 진연로 30-9, 3층 (연산동)",
      "tel": "0517588167",
      "latitude": "35.18005852",
      "longitude": "129.0726779",
      "bus_stop": "1호선 시청역 1번 출구",
      "holiday_open": true,
      "is_partnered": false
    }
  },
  {
    "model": "medical.medicalfacility",
    "pk": 130,
    "fields": {
      "name": "호연한의원",
      "type": "한의원",
      "address": "부산광역시 사상구 낙동대로 754 (엄궁동)",
      "tel": "0513281275",
      "latitude": "35.12833644",
      "longitude": "128.9701678",
      "bus_stop": "버스정류장: 엄궁치안센터",
      "holiday_open": true,
      "is_partnered": false
    }
  },
  {
    "model": "medical.medicalfacility",
    "pk": 131,
    "fields": {
      "name": "호일침한의원",
      "type": "한의원",
      "address": "부산광역시 부산진구 서면문화로 27, 유원 골든타워 오피스텔 20층 (부전동)",
      "tel": "15771775",
      "latitude": "35.15943167",
      "longitude": "129.0556023",
      "bus_stop": "1,2호선 서면역 9번출구",
      "holiday_open": true,
      "is_partnered": false
    }
  },
  {
    "model": "medical.medicalfacility",
    "pk": 132,
    "fields": {
      "name": "호한의원",
      "type": "한의원",
      "address": "부산광역시 동구 망양로875번길 1 (범일동)",
      "tel": "0516366612",
      "latitude": "35.13871279",
      "longitude": "129.0478616",
      "bus_stop": " ",
      "holiday_open": true,
      "is_partnered": false
    }
  },
  {
    "model": "medical.medicalfacility",
    "pk": 133,
    "fields": {
      "name": "해맑은한의원",
      "type": "한의원",
      "address": "부산광역시 연제구 반송로 9, 2층 (연산동)",
      "tel": "0518658899",
      "latitude": "35.18674295",
      "longitude": "129.0822193",
      "bus_stop": "1호선 연산역 14번 출구",
      "holiday_open": true,
      "is_partnered": false
    }
  },
  {
    "model": "medical.medicalfacility",
    "pk": 134,
    "fields": {
      "name": "해맑은한의원",
      "type": "한의원",
      "address": "부산광역시 동래구 여고북로 199 (온천동)",
      "tel": "0515068275",
      "latitude": "35.20279286",
      "longitude": "129.0755688",
      "bus_stop": "1호선 교대역 2번출구",
      "holiday_open": true,
      "is_partnered": false
    }
  },
  {
    "model": "medical.medicalfacility",
    "pk": 135,
    "fields": {
      "name": "해민한의원",
      "type": "한의원",
      "address": "부산광역시 영도구 대교로 11 (봉래동3가, 새마을금고 2층)",
      "tel": "0514127513",
      "latitude": "35.09304849",
      "longitude": "129.0436132",
      "bus_stop": "버스정류장: 봉래1동 주민센터",
      "holiday_open": true,
      "is_partnered": false
    }
  },
  {
    "model": "medical.medicalfacility",
    "pk": 136,
    "fields": {
      "name": "해밀한의원",
      "type": "한의원",
      "address": "부산광역시 기장군 정관읍 용수공단1길 36, 4층",
      "tel": "0517283475",
      "latitude": "35.32777854",
      "longitude": "129.1620461",
      "bus_stop": "버스정류장: 중앙공원",
      "holiday_open": true,
      "is_partnered": false
    }
  },
  {
    "model": "medical.medicalfacility",
    "pk": 137,
    "fields": {
      "name": "해밀한의원",
      "type": "한의원",
      "address": "부산광역시 사상구 모라로 22, B104~B108동 (모라동)",
      "tel": "05160995112",
      "latitude": "35.19090221",
      "longitude": "128.9847254",
      "bus_stop": "버스정류장: 부산벤처타워",
      "holiday_open": true,
      "is_partnered": false
    }
  },
  {
    "model": "medical.medicalfacility",
    "pk": 138,
    "fields": {
      "name": "해산한의원",
      "type": "한의원",
      "address": "부산광역시 금정구 금강로 651-1 (남산동)",
      "tel": "0515831116",
      "latitude": "35.26582793",
      "longitude": "129.0884808",
      "bus_stop": "1호선 남산역 3번출구",
      "holiday_open": true,
      "is_partnered": false
    }
  },
  {
    "model": "medical.medicalfacility",
    "pk": 139,
    "fields": {
      "name": "해산한의원",
      "type": "한의원",
      "address": "부산광역시 북구 금곡대로 230 (화명동)",
      "tel": "0513631075",
      "latitude": "35.22876206",
      "longitude": "129.0129216",
      "bus_stop": "버스정류장: 동원로얄듀크1차 아파트",
      "holiday_open": true,
      "is_partnered": false
    }
  },
  {
    "model": "medical.medicalfacility",
    "pk": 140,
    "fields": {
      "name": "해소한의원",
      "type": "한의원",
      "address": "부산광역시 동구 자성로116번길 2, 105동 3층 304,305,306,307,308호 (범일동, 두산위브포세이돈Ⅱ)",
      "tel": "0516346232",
      "latitude": "35.13623313",
      "longitude": "129.0634552",
      "bus_stop": "버스정류장: 자성대공원",
      "holiday_open": true,
      "is_partnered": false
    }
  },
  {
    "model": "medical.medicalfacility",
    "pk": 141,
    "fields": {
      "name": "해수한의원",
      "type": "한의원",
      "address": "부산광역시 남구 유엔평화로143번길 7 (용당동)",
      "tel": "0516265337",
      "latitude": "35.12398946",
      "longitude": "129.0970874",
      "bus_stop": " ",
      "holiday_open": true,
      "is_partnered": false
    }
  },
  {
    "model": "medical.medicalfacility",
    "pk": 142,
    "fields": {
      "name": "해아림한의원부산센텀점",
      "type": "한의원",
      "address": "부산광역시 해운대구 센텀2로 24, 센텀다이아몬드 202호 (우동)",
      "tel": "0517311075",
      "latitude": "35.16666901",
      "longitude": "129.132447",
      "bus_stop": "2호선 센텀시티역 11번출구",
      "holiday_open": true,
      "is_partnered": false
    }
  },
  {
    "model": "medical.medicalfacility",
    "pk": 143,
    "fields": {
      "name": "해와달한의원",
      "type": "한의원",
      "address": "부산광역시 북구 만덕대로 164 (덕천동)",
      "tel": "0513389981",
      "latitude": "35.21309539",
      "longitude": "129.0226227",
      "bus_stop": "3호선 남산정역 5번출구",
      "holiday_open": true,
      "is_partnered": false
    }
  },
  {
    "model": "medical.medicalfacility",
    "pk": 144,
    "fields": {
      "name": "해운대봄한의원",
      "type": "한의원",
      "address": "부산광역시 해운대구 중동2로 12-1, 5층 (중동)",
      "tel": "0517432300",
      "latitude": "35.16313712",
      "longitude": "129.16457",
      "bus_stop": "버스정류장: 해운대구청",
      "holiday_open": true,
      "is_partnered": false
    }
  },
  {
    "model": "medical.medicalfacility",
    "pk": 145,
    "fields": {
      "name": "해운대한의원",
      "type": "한의원",
      "address": "부산광역시 해운대구 재반로 82, 1층 (재송동)",
      "tel": "0517843136",
      "latitude": "35.18602036",
      "longitude": "129.1258316",
      "bus_stop": "버스정류장: 재송초등학교",
      "holiday_open": true,
      "is_partnered": false
    }
  },
  {
    "model": "medical.medicalfacility",
    "pk": 146,
    "fields": {
      "name": "해율한의원",
      "type": "한의원",
      "address": "부산광역시 부산진구 가야대로 785 (부전동, 인제메디컬a 7층)",
      "tel": "0518197566",
      "latitude": "35.15812644",
      "longitude": "129.0574623",
      "bus_stop": "1,2호선 서면역 9번출구",
      "holiday_open": true,
      "is_partnered": false
    }
  },
  {
    "model": "medical.medicalfacility",
    "pk": 147,
    "fields": {
      "name": "해은한의원",
      "type": "한의원",
      "address": "부산광역시 금정구 중앙대로 1943, 2층 (구서동, 첨단빌딩)",
      "tel": "0515141075",
      "latitude": "35.25788133",
      "longitude": "129.0910887",
      "bus_stop": "1호선 두실역 7번 출구",
      "holiday_open": true,
      "is_partnered": false
    }
  },
  {
    "model": "medical.medicalfacility",
    "pk": 148,
    "fields": {
      "name": "해인한의원",
      "type": "한의원",
      "address": "부산광역시 기장군 정관면 구연방곡로 11",
      "tel": "0517287075",
      "latitude": "35.32062446",
      "longitude": "129.1840379",
      "bus_stop": "버스정류장: 구연교 앞 삼거리",
      "holiday_open": true,
      "is_partnered": false
    }
  },
  {
    "model": "medical.medicalfacility",
    "pk": 149,
    "fields": {
      "name": "해인한의원",
      "type": "한의원",
      "address": "부산광역시 금정구 부곡로 131, 1,2층 (부곡동)",
      "tel": "0517145125",
      "latitude": "35.2276601",
      "longitude": "129.0918699",
      "bus_stop": "버스정류장: 금정세무소",
      "holiday_open": true,
      "is_partnered": false
    }
  },
  {
    "model": "medical.medicalfacility",
    "pk": 150,
    "fields": {
      "name": "해인한의원",
      "type": "한의원",
      "address": "부산광역시 부산진구 동평로 404, 3층 (양정동)",
      "tel": "0518618575",
      "latitude": "35.17376338",
      "longitude": "129.0689943",
      "bus_stop": "1호선 양정역 1,5번 출구",
      "holiday_open": true,
      "is_partnered": false
    }
  },
  {
    "model": "medical.medicalfacility",
    "pk": 151,
    "fields": {
      "name": "해인한의원",
      "type": "한의원",
      "address": "부산광역시 동래구 명장로20번길 109 (안락동)",
      "tel": "0515239183",
      "latitude": "35.20136328",
      "longitude": "129.1002148",
      "bus_stop": "4호선 충렬사역 4번 출구",
      "holiday_open": true,
      "is_partnered": false
    }
  },
  {
    "model": "medical.medicalfacility",
    "pk": 152,
    "fields": {
      "name": "해인한의원",
      "type": "한의원",
      "address": "부산광역시 사하구 낙동대로 184 (괴정동)",
      "tel": "0512013232",
      "latitude": "35.10166711",
      "longitude": "128.9963948",
      "bus_stop": "1호선 대티역 1번 출구",
      "holiday_open": true,
      "is_partnered": false
    }
  },
  {
    "model": "medical.medicalfacility",
    "pk": 153,
    "fields": {
      "name": "해통백세한의원",
      "type": "한의원",
      "address": "부산광역시 연제구 중앙대로 1034, 2층 (연산동)",
      "tel": "0518510975",
      "latitude": "35.18073495",
      "longitude": "129.0777041",
      "bus_stop": "1호선 시청역 8번출구",
      "holiday_open": true,
      "is_partnered": false
    }
  },
  {
    "model": "medical.medicalfacility",
    "pk": 154,
    "fields": {
      "name": "행림한의원",
      "type": "한의원",
      "address": "부산광역시 동래구 중앙대로1381번길 17, 2층 (온천동)",
      "tel": "0513348484",
      "latitude": "35.21071375",
      "longitude": "129.0768376",
      "bus_stop": "인근 지하철역 1호선 명륜역",
      "holiday_open": true,
      "is_partnered": false
    }
  },
  {
    "model": "medical.medicalfacility",
    "pk": 155,
    "fields": {
      "name": "행림한의원",
      "type": "한의원",
      "address": "부산광역시 사하구 낙동대로 309, 1~5층 (괴정동)",
      "tel": "0512915050",
      "latitude": "35.09960378",
      "longitude": "128.9830544",
      "bus_stop": "1호선 사하역 4번출구",
      "holiday_open": true,
      "is_partnered": false
    }
  },
  {
    "model": "medical.medicalfacility",
    "pk": 156,
    "fields": {
      "name": "행복나무한의원",
      "type": "한의원",
      "address": "부산광역시 기장군 정관읍 달산2길 6, 1층 (정관읍)",
      "tel": " ",
      "latitude": "35.31828941",
      "longitude": "129.1813314",
      "bus_stop": " ",
      "holiday_open": true,
      "is_partnered": false
    }
  },
  {
    "model": "medical.medicalfacility",
    "pk": 157,
    "fields": {
      "name": "행복의원,한의원",
      "type": "한의원",
      "address": "부산광역시 금정구 서동로 137-1, 1층 (서동)",
      "tel": "0515222900",
      "latitude": "35.2154106",
      "longitude": "129.1017775",
      "bus_stop": "버스정류장 : 세웅병원",
      "holiday_open": true,
      "is_partnered": false
    }
  },
  {
    "model": "medical.medicalfacility",
    "pk": 158,
    "fields": {
      "name": "한백한의원",
      "type": "한의원",
      "address": "부산광역시 사하구 다대로 269, (장림동)",
      "tel": "0512655575",
      "latitude": "35.07834733",
      "longitude": "128.9776343",
      "bus_stop": " ",
      "holiday_open": true,
      "is_partnered": false
    }
  },
  {
    "model": "medical.medicalfacility",
    "pk": 159,
    "fields": {
      "name": "한빛수한의원",
      "type": "한의원",
      "address": "부산광역시 연제구 중앙대로 1113, 3층 (연산동)",
      "tel": "0518538275",
      "latitude": "35.18696937",
      "longitude": "129.0810914",
      "bus_stop": "1,3호선 연산역 5,7번 출구",
      "holiday_open": true,
      "is_partnered": false
    }
  },
  {
    "model": "medical.medicalfacility",
    "pk": 160,
    "fields": {
      "name": "한빛한의원",
      "type": "한의원",
      "address": "부산광역시 금정구 중앙대로1719번길 22 (부곡동)",
      "tel": "0515153114",
      "latitude": "35.23791696",
      "longitude": "129.0909638",
      "bus_stop": "1호선 장전역 2번출구",
      "holiday_open": true,
      "is_partnered": false
    }
  },
  {
    "model": "medical.medicalfacility",
    "pk": 161,
    "fields": {
      "name": "한빛한의원",
      "type": "한의원",
      "address": "부산광역시 강서구 명지오션시티4로 62 (명지동)",
      "tel": "0512061075",
      "latitude": "35.0835132",
      "longitude": "128.9032588",
      "bus_stop": " ",
      "holiday_open": true,
      "is_partnered": false
    }
  },
  {
    "model": "medical.medicalfacility",
    "pk": 162,
    "fields": {
      "name": "한빛한의원",
      "type": "한의원",
      "address": "부산광역시 수영구 망미번영로38번길 88 (광안동)",
      "tel": "0517515678",
      "latitude": "35.16816808",
      "longitude": "129.1127199",
      "bus_stop": "2,3호선 수영역 4번출구",
      "holiday_open": true,
      "is_partnered": false
    }
  },
  {
    "model": "medical.medicalfacility",
    "pk": 163,
    "fields": {
      "name": "한샘한의원",
      "type": "한의원",
      "address": "부산광역시 동구 중앙대로371번길 54 (수정동)",
      "tel": "0514688275",
      "latitude": "35.13020881",
      "longitude": "129.0462164",
      "bus_stop": "1호선 부산진역 7번출구",
      "holiday_open": true,
      "is_partnered": false
    }
  },
  {
    "model": "medical.medicalfacility",
    "pk": 164,
    "fields": {
      "name": "한선한의원",
      "type": "한의원",
      "address": "부산광역시 해운대구 해운대로 407 (우동, 프라자빌딩 501호, 502호)",
      "tel": "0517436796",
      "latitude": "35.16783542",
      "longitude": "129.140696",
      "bus_stop": "2호선 시립미술관역 2번출구/버스정류장: 해운대 농협/프라자빌딩 501, 502호",
      "holiday_open": true,
      "is_partnered": false
    }
  },
  {
    "model": "medical.medicalfacility",
    "pk": 165,
    "fields": {
      "name": "한솔부부한의원",
      "type": "한의원",
      "address": "부산광역시 북구 금곡대로285번길 13, 202호 (화명동, 스포렉스)",
      "tel": "0513621180",
      "latitude": "35.2337212",
      "longitude": "129.0127416",
      "bus_stop": "2호선 화명역 1번출구/화명스포렉스 202호",
      "holiday_open": true,
      "is_partnered": false
    }
  },
  {
    "model": "medical.medicalfacility",
    "pk": 166,
    "fields": {
      "name": "한솔한의원",
      "type": "한의원",
      "address": "부산광역시 금정구 구서로 10, 2층 (구서동)",
      "tel": "0515159988",
      "latitude": "35.24686617",
      "longitude": "129.0901278",
      "bus_stop": "1호선 구서역 1번출구",
      "holiday_open": true,
      "is_partnered": false
    }
  },
  {
    "model": "medical.medicalfacility",
    "pk": 167,
    "fields": {
      "name": "한음한방신경정신과한의원",
      "type": "한의원",
      "address": "부산광역시 부산진구 가야대로 785, B동 9층 903호 (부전동, 성영빌딩)",
      "tel": "0518067510",
      "latitude": "35.15812644",
      "longitude": "129.0574623",
      "bus_stop": "1,2호선 서면역 9번 출구/인제메디칼센터 성영빌딩 B동 9층 903호",
      "holiday_open": true,
      "is_partnered": false
    }
  },
  {
    "model": "medical.medicalfacility",
    "pk": 168,
    "fields": {
      "name": "한음한방신경정신과한의원",
      "type": "한의원",
      "address": "부산광역시 해운대구 센텀3로 20, 벡스코 비지니스호텔 303호 (우동)",
      "tel": "0517315001",
      "latitude": "35.16781033",
      "longitude": "129.1328141",
      "bus_stop": "2호선 센텀시티역 9번 출구",
      "holiday_open": true,
      "is_partnered": false
    }
  },
  {
    "model": "medical.medicalfacility",
    "pk": 169,
    "fields": {
      "name": "함소아한의원",
      "type": "한의원",
      "address": "부산광역시 부산진구 서면로 64, 12층 (부전동, 청석빌딩)",
      "tel": "0518081065",
      "latitude": "35.15646259",
      "longitude": "129.0580663",
      "bus_stop": "1,2호선 서면역 7번 출구/청석빌딩 12층",
      "holiday_open": true,
      "is_partnered": false
    }
  },
  {
    "model": "medical.medicalfacility",
    "pk": 170,
    "fields": {
      "name": "함소아한의원",
      "type": "한의원",
      "address": "부산광역시 해운대구 양운로 98, 6층 (좌동, 대하프라자)",
      "tel": "0517043366",
      "latitude": "35.17163705",
      "longitude": "129.1748346",
      "bus_stop": "2호선 장산역 10번출구/버스정류장:해운대문화회관",
      "holiday_open": true,
      "is_partnered": false
    }
  },
  {
    "model": "medical.medicalfacility",
    "pk": 171,
    "fields": {
      "name": "함소아한의원",
      "type": "한의원",
      "address": "부산광역시 사하구 낙동대로 428, 4층 (당리동)",
      "tel": "0512711075",
      "latitude": "35.1045721",
      "longitude": "128.9716956",
      "bus_stop": "1호선 당리역 1번출구",
      "holiday_open": true,
      "is_partnered": false
    }
  },
  {
    "model": "medical.medicalfacility",
    "pk": 172,
    "fields": {
      "name": "합천한의원",
      "type": "한의원",
      "address": "부산광역시 서구 까치고개로208번길 26-1 (아미동2가)",
      "tel": "0512562887",
      "latitude": "35.09862744",
      "longitude": "129.0182937",
      "bus_stop": "1호선 토성역 10번 출구",
      "holiday_open": true,
      "is_partnered": false
    }
  },
  {
    "model": "medical.medicalfacility",
    "pk": 173,
    "fields": {
      "name": "항도다사랑한의원",
      "type": "한의원",
      "address": "부산광역시 부산진구 대학로61번길 3, 2층 (가야동)",
      "tel": "0518983600",
      "latitude": "35.15025362",
      "longitude": "129.0349497",
      "bus_stop": "버스정류장: 다사랑복합문화예술회관 맞은편",
      "holiday_open": true,
      "is_partnered": false
    }
  },
  {
    "model": "medical.medicalfacility",
    "pk": 174,
    "fields": {
      "name": "해강한의원",
      "type": "한의원",
      "address": "부산광역시 사하구 감천로 122 (감천동)",
      "tel": "0512919812",
      "latitude": "35.08721186",
      "longitude": "129.0047177",
      "bus_stop": "감천사거리 부근",
      "holiday_open": true,
      "is_partnered": false
    }
  },
  {
    "model": "medical.medicalfacility",
    "pk": 175,
    "fields": {
      "name": "해광한의원",
      "type": "한의원",
      "address": "부산광역시 금정구 중앙대로 1929, 2층 (구서동)",
      "tel": "0515171075",
      "latitude": "35.25666452",
      "longitude": "129.0910834",
      "bus_stop": "1호선 두실역 3번출구",
      "holiday_open": true,
      "is_partnered": false
    }
  },
  {
    "model": "medical.medicalfacility",
    "pk": 176,
    "fields": {
      "name": "해광한의원",
      "type": "한의원",
      "address": "부산광역시 중구 대청로 45 (보수동2가)",
      "tel": "0512537340",
      "latitude": "35.10335898",
      "longitude": "129.0248021",
      "bus_stop": "버스정류장: 보수동 책방골목",
      "holiday_open": true,
      "is_partnered": false
    }
  },
  {
    "model": "medical.medicalfacility",
    "pk": 177,
    "fields": {
      "name": "해담한의원",
      "type": "한의원",
      "address": "부산광역시 수영구 수영로705번길 5, 엠에스빌딩 2층 (수영동)",
      "tel": "0517550707",
      "latitude": "35.1681342",
      "longitude": "129.1163968",
      "bus_stop": "수영역 3번 출구",
      "holiday_open": true,
      "is_partnered": false
    }
  },
  {
    "model": "medical.medicalfacility",
    "pk": 178,
    "fields": {
      "name": "해당한의원",
      "type": "한의원",
      "address": "부산광역시 부산진구 중앙대로 712, 3층 (부전동)",
      "tel": "0518048275",
      "latitude": "35.15625192",
      "longitude": "129.0594795",
      "bus_stop": "1,2호선 서면역 13번출구",
      "holiday_open": true,
      "is_partnered": false
    }
  },
  {
    "model": "medical.medicalfacility",
    "pk": 179,
    "fields": {
      "name": "해독청혈 은백한의원",
      "type": "한의원",
      "address": "부산광역시 부산진구 가야대로 749, 지하1, 지상2층 (부전동)",
      "tel": "0518063588",
      "latitude": "35.15791765",
      "longitude": "129.0534973",
      "bus_stop": "1,2호선 서면역 9번출구",
      "holiday_open": true,
      "is_partnered": false
    }
  },
  {
    "model": "medical.medicalfacility",
    "pk": 180,
    "fields": {
      "name": "해돋이한의원",
      "type": "한의원",
      "address": "부산광역시 부산진구 가야대로 600 (가야동, 2층)",
      "tel": "0518977555",
      "latitude": "35.15461297",
      "longitude": "129.0374525",
      "bus_stop": "2호선 동의대역 2번 출구",
      "holiday_open": true,
      "is_partnered": false
    }
  },
  {
    "model": "medical.medicalfacility",
    "pk": 181,
    "fields": {
      "name": "해뜨는한의원",
      "type": "한의원",
      "address": "부산광역시 동구 망양로 893-1, 범일메디칼센타 3층 (범일동)",
      "tel": "0516341275",
      "latitude": "35.14028207",
      "longitude": "129.0488035",
      "bus_stop": " ",
      "holiday_open": true,
      "is_partnered": false
    }
  },
  {
    "model": "medical.medicalfacility",
    "pk": 182,
    "fields": {
      "name": "해맑은한의원",
      "type": "한의원",
      "address": "부산광역시 북구 금곡대로285번길 5",
      "tel": "0513633375",
      "latitude": "35.23367236",
      "longitude": "129.0131915",
      "bus_stop": "2호선 화명역 1번출구",
      "holiday_open": true,
      "is_partnered": false
    }
  },
  {
    "model": "medical.medicalfacility",
    "pk": 183,
    "fields": {
      "name": "평안한의원",
      "type": "한의원",
      "address": "부산광역시 서구 대영로 53-1 (서대신동2가)",
      "tel": "0512431275",
      "latitude": "35.11001249",
      "longitude": "129.0171849",
      "bus_stop": "1호선 동대신동역 6번 출구",
      "holiday_open": true,
      "is_partnered": false
    }
  },
  {
    "model": "medical.medicalfacility",
    "pk": 184,
    "fields": {
      "name": "평일한의원",
      "type": "한의원",
      "address": "부산광역시 남구 못골로 51, 2층 (대연동)",
      "tel": "0517117789",
      "latitude": "35.13595139",
      "longitude": "129.0880528",
      "bus_stop": "2호선 대연역 6번 출구",
      "holiday_open": true,
      "is_partnered": false
    }
  },
  {
    "model": "medical.medicalfacility",
    "pk": 185,
    "fields": {
      "name": "평화강한의원",
      "type": "한의원",
      "address": "부산광역시 해운대구 선수촌로 102-2, 2층 (반여동, 부원메디칼빌딩)",
      "tel": "0515297579",
      "latitude": "35.20277153",
      "longitude": "129.1196277",
      "bus_stop": "버스정류장: 아시아선수촌아파트",
      "holiday_open": true,
      "is_partnered": false
    }
  },
  {
    "model": "medical.medicalfacility",
    "pk": 186,
    "fields": {
      "name": "포도나무한의원",
      "type": "한의원",
      "address": "부산광역시 수영구 수영로 577, 2층 (광안동)",
      "tel": "0518640011",
      "latitude": "35.15733346",
      "longitude": "129.1127149",
      "bus_stop": "2호선 광안역 4번출구",
      "holiday_open": true,
      "is_partnered": false
    }
  },
  {
    "model": "medical.medicalfacility",
    "pk": 187,
    "fields": {
      "name": "푸른솔한의원",
      "type": "한의원",
      "address": "부산광역시 북구 백양대로 1204 (덕천동)",
      "tel": "0513628868",
      "latitude": "35.20979303",
      "longitude": "129.0058213",
      "bus_stop": "2호선 덕천역 2,4번 출구",
      "holiday_open": true,
      "is_partnered": false
    }
  },
  {
    "model": "medical.medicalfacility",
    "pk": 188,
    "fields": {
      "name": "푸른솔한의원",
      "type": "한의원",
      "address": "부산광역시 부산진구 성지로 112, 성원빌딩 2층 (초읍동)",
      "tel": "0517117580",
      "latitude": "35.18009663",
      "longitude": "129.0519174",
      "bus_stop": "버스정류장 : 초읍초등학교",
      "holiday_open": true,
      "is_partnered": false
    }
  },
  {
    "model": "medical.medicalfacility",
    "pk": 189,
    "fields": {
      "name": "풀잎향기한의원",
      "type": "한의원",
      "address": "부산광역시 금정구 서부곡로16번길 74, 1,2층 (부곡동)",
      "tel": "0515321835",
      "latitude": "35.2293022",
      "longitude": "129.0916941",
      "bus_stop": "1호선 부산대역 2번 출구",
      "holiday_open": true,
      "is_partnered": false
    }
  },
  {
    "model": "medical.medicalfacility",
    "pk": 190,
    "fields": {
      "name": "프라임한의원",
      "type": "한의원",
      "address": "부산광역시 부산진구 중앙대로 751 (부전동)",
      "tel": "0515019972",
      "latitude": "35.15975111",
      "longitude": "129.0603042",
      "bus_stop": "3호선 미남역 2번출구",
      "holiday_open": true,
      "is_partnered": false
    }
  },
  {
    "model": "medical.medicalfacility",
    "pk": 191,
    "fields": {
      "name": "필한의원",
      "type": "한의원",
      "address": "부산광역시 부산진구 부전로174번길 43 (부전동)",
      "tel": "0518061075",
      "latitude": "35.16143046",
      "longitude": "129.0610175",
      "bus_stop": "1호선 부전역 1번출구",
      "holiday_open": true,
      "is_partnered": false
    }
  },
  {
    "model": "medical.medicalfacility",
    "pk": 192,
    "fields": {
      "name": "필한의원",
      "type": "한의원",
      "address": "부산광역시 연제구 과정로 217 (연산동)",
      "tel": "0517575375",
      "latitude": "35.18756113",
      "longitude": "129.1033993",
      "bus_stop": "버스정류장: 연산8치안센터",
      "holiday_open": true,
      "is_partnered": false
    }
  },
  {
    "model": "medical.medicalfacility",
    "pk": 193,
    "fields": {
      "name": "하나로한의원",
      "type": "한의원",
      "address": "부산광역시 연제구 명륜로2번길 8, 2,3층 (거제동)",
      "tel": "0518523515",
      "latitude": "35.19519443",
      "longitude": "129.0805966",
      "bus_stop": "2호선 교대역 4번출구",
      "holiday_open": true,
      "is_partnered": false
    }
  },
  {
    "model": "medical.medicalfacility",
    "pk": 194,
    "fields": {
      "name": "하나부부한의원",
      "type": "한의원",
      "address": "부산광역시 서구 대영로 47 (서대신동2가)",
      "tel": "0512311011",
      "latitude": "35.10981881",
      "longitude": "129.0166341",
      "bus_stop": "1호선 서대신역 4번출구",
      "holiday_open": true,
      "is_partnered": false
    }
  },
  {
    "model": "medical.medicalfacility",
    "pk": 195,
    "fields": {
      "name": "하나한의원",
      "type": "한의원",
      "address": "부산광역시 북구 금곡대로 469, 2층 (금곡동, 농협하나로클럽부산점)",
      "tel": "0513621836",
      "latitude": "35.25002197",
      "longitude": "129.0112195",
      "bus_stop": "2호선 율리역 3번출구/버스정류장:금곡동 주민센터",
      "holiday_open": true,
      "is_partnered": false
    }
  },
  {
    "model": "medical.medicalfacility",
    "pk": 196,
    "fields": {
      "name": "하나한의원",
      "type": "한의원",
      "address": "부산광역시 연제구 진남로 621 (연산동)",
      "tel": "0518644700",
      "latitude": "35.17495265",
      "longitude": "129.0812285",
      "bus_stop": "버스정류장: 연제구청삼거리",
      "holiday_open": true,
      "is_partnered": false
    }
  },
  {
    "model": "medical.medicalfacility",
    "pk": 197,
    "fields": {
      "name": "하늘마음한의원",
      "type": "한의원",
      "address": "부산광역시 북구 만덕대로 9, 구포빌딩 7층 (덕천동)",
      "tel": "0519968575",
      "latitude": "35.21070096",
      "longitude": "129.0061181",
      "bus_stop": "3호선 덕천역 12번 출구",
      "holiday_open": true,
      "is_partnered": false
    }
  },
  {
    "model": "medical.medicalfacility",
    "pk": 198,
    "fields": {
      "name": "하늘마음한의원",
      "type": "한의원",
      "address": "부산광역시 부산진구 중앙대로 712 (부전동)",
      "tel": "0518168575",
      "latitude": "35.15625192",
      "longitude": "129.0594795",
      "bus_stop": "1,2호선 서면역 2번출구/수양빌딩 10층",
      "holiday_open": true,
      "is_partnered": false
    }
  },
  {
    "model": "medical.medicalfacility",
    "pk": 199,
    "fields": {
      "name": "하늘체한의원",
      "type": "한의원",
      "address": "부산광역시 연제구 반송로 6, 6층 (연산동)",
      "tel": "0518687866",
      "latitude": "35.18622725",
      "longitude": "129.0824321",
      "bus_stop": "1호선 연산역 10, 12번 출구",
      "holiday_open": true,
      "is_partnered": false
    }
  },
  {
    "model": "medical.medicalfacility",
    "pk": 200,
    "fields": {
      "name": "학장제일한의원",
      "type": "한의원",
      "address": "부산광역시 사상구 대동로 95, 3층 (학장동)",
      "tel": "0513167975",
      "latitude": "35.13852296",
      "longitude": "128.9779263",
      "bus_stop": "2호선 냉정역 2번출구/버스정류장:학장 반도보라 아파트",
      "holiday_open": true,
      "is_partnered": false
    }
  },
  {
    "model": "medical.medicalfacility",
    "pk": 201,
    "fields": {
      "name": "한가족한의원",
      "type": "한의원",
      "address": "부산광역시 영도구 청학로 21, 1층 (청학동)",
      "tel": "0514147555",
      "latitude": "35.09176985",
      "longitude": "129.0610893",
      "bus_stop": " ",
      "holiday_open": true,
      "is_partnered": false
    }
  },
  {
    "model": "medical.medicalfacility",
    "pk": 202,
    "fields": {
      "name": "한겨레한의원",
      "type": "한의원",
      "address": "부산광역시 수영구 연수로 274 (망미동)",
      "tel": "0517518878",
      "latitude": "35.17288564",
      "longitude": "129.1005331",
      "bus_stop": "3호선 배산역 1번출구",
      "holiday_open": true,
      "is_partnered": false
    }
  },
  {
    "model": "medical.medicalfacility",
    "pk": 203,
    "fields": {
      "name": "한국한의원",
      "type": "한의원",
      "address": "부산광역시 동래구 충렬대로 154 (온천동)",
      "tel": "0515010025",
      "latitude": "35.2045204",
      "longitude": "129.0769315",
      "bus_stop": "1, 4호선 동래역 6,8번출구",
      "holiday_open": true,
      "is_partnered": false
    }
  },
  {
    "model": "medical.medicalfacility",
    "pk": 204,
    "fields": {
      "name": "한나라한의원",
      "type": "한의원",
      "address": "부산광역시 동래구 아시아드대로 183 (사직동)",
      "tel": "0515157070",
      "latitude": "35.20092494",
      "longitude": "129.0645955",
      "bus_stop": "3호선 사직역 3,4번출구",
      "holiday_open": true,
      "is_partnered": false
    }
  },
  {
    "model": "medical.medicalfacility",
    "pk": 205,
    "fields": {
      "name": "한동한의원",
      "type": "한의원",
      "address": "부산광역시 부산진구 복지로 18 (개금동)",
      "tel": "0518914444",
      "latitude": "35.15157872",
      "longitude": "129.0200843",
      "bus_stop": "2호선 개금역 5번출구",
      "holiday_open": true,
      "is_partnered": false
    }
  },
  {
    "model": "medical.medicalfacility",
    "pk": 206,
    "fields": {
      "name": "한마음한의원",
      "type": "한의원",
      "address": "부산광역시 해운대구 양운로 122 (좌동)",
      "tel": "0517044575",
      "latitude": "35.17354672",
      "longitude": "129.1731056",
      "bus_stop": "버스정류장: 해운대문화회관 교차로",
      "holiday_open": true,
      "is_partnered": false
    }
  },
  {
    "model": "medical.medicalfacility",
    "pk": 207,
    "fields": {
      "name": "한방천지산이성한한의원",
      "type": "한의원",
      "address": "부산광역시 금정구 서동로 159-3 (서동)",
      "tel": "0515287575",
      "latitude": "35.21503006",
      "longitude": "129.103969",
      "bus_stop": "버스정류장: 세웅종합병원 정문 맞은편",
      "holiday_open": true,
      "is_partnered": false
    }
  },
  {
    "model": "medical.medicalfacility",
    "pk": 208,
    "fields": {
      "name": "코호한의원",
      "type": "한의원",
      "address": "부산광역시 연제구 중앙대로 1111 (연산동, 6층 일부)",
      "tel": "0518617505",
      "latitude": "35.18674355",
      "longitude": "129.0811433",
      "bus_stop": "연산역 7번 출구",
      "holiday_open": true,
      "is_partnered": false
    }
  },
  {
    "model": "medical.medicalfacility",
    "pk": 209,
    "fields": {
      "name": "쿨한의원",
      "type": "한의원",
      "address": "부산광역시 연제구 고분로 118, 2층 (연산동)",
      "tel": "0518538600",
      "latitude": "35.18559809",
      "longitude": "129.0952478",
      "bus_stop": "버스정류장: 부산시교육연수원",
      "holiday_open": true,
      "is_partnered": false
    }
  },
  {
    "model": "medical.medicalfacility",
    "pk": 210,
    "fields": {
      "name": "큰다솜한의원",
      "type": "한의원",
      "address": "부산광역시 사하구 괴정로 117 (당리동,대호상가아파트 102호)",
      "tel": "0512084567",
      "latitude": "35.10149299",
      "longitude": "128.9768361",
      "bus_stop": "1호선 당리역 6번출구",
      "holiday_open": true,
      "is_partnered": false
    }
  },
  {
    "model": "medical.medicalfacility",
    "pk": 211,
    "fields": {
      "name": "큰사랑한의원",
      "type": "한의원",
      "address": "부산광역시 영도구 태종로 93 (대교동2가)",
      "tel": "0514176337",
      "latitude": "35.0918339",
      "longitude": "129.0412508",
      "bus_stop": "버스정류장: 영도병원",
      "holiday_open": true,
      "is_partnered": false
    }
  },
  {
    "model": "medical.medicalfacility",
    "pk": 212,
    "fields": {
      "name": "태강 한의원",
      "type": "한의원",
      "address": "부산광역시 남구 고동골로4번길 17, 2층 (문현동)",
      "tel": "0516424332",
      "latitude": "35.13758903",
      "longitude": "129.0722185",
      "bus_stop": "2호선 지게골역 4번출구/문현동 메가마트 앞/DC 마트 2층",
      "holiday_open": true,
      "is_partnered": false
    }
  },
  {
    "model": "medical.medicalfacility",
    "pk": 213,
    "fields": {
      "name": "태극한의원",
      "type": "한의원",
      "address": "부산광역시 해운대구 우동1로 75 (우동)",
      "tel": "0517417625",
      "latitude": "35.16801527",
      "longitude": "129.1568788",
      "bus_stop": "버스정류장: 해운대관광고등학교",
      "holiday_open": true,
      "is_partnered": false
    }
  },
  {
    "model": "medical.medicalfacility",
    "pk": 214,
    "fields": {
      "name": "정경한의원",
      "type": "한의원",
      "address": "부산광역시 해운대구 중동1로 12, 6층 (우동)",
      "tel": "0517464018",
      "latitude": "35.16362235",
      "longitude": "129.1609766",
      "bus_stop": "2호선 해운대역 1번출구",
      "holiday_open": true,
      "is_partnered": false
    }
  },
  {
    "model": "medical.medicalfacility",
    "pk": 215,
    "fields": {
      "name": "정관고려한의원",
      "type": "한의원",
      "address": "부산광역시 기장군 정관면 정관4로 37, 201호 (금샘프라자2)",
      "tel": "0517278275",
      "latitude": "35.32645092",
      "longitude": "129.1707158",
      "bus_stop": "금샘프라자 201호",
      "holiday_open": true,
      "is_partnered": false
    }
  },
  {
    "model": "medical.medicalfacility",
    "pk": 216,
    "fields": {
      "name": "정관소망한의원",
      "type": "한의원",
      "address": "부산광역시 기장군 정관면 정관로 385, 3층 (이지프라자)",
      "tel": "0517281350",
      "latitude": "35.33498268",
      "longitude": "129.1655482",
      "bus_stop": "이지더원2차아파트 맞은편 이지프라자 3층",
      "holiday_open": true,
      "is_partnered": false
    }
  },
  {
    "model": "medical.medicalfacility",
    "pk": 217,
    "fields": {
      "name": "정관에스(S)한의원",
      "type": "한의원",
      "address": "부산광역시 기장군 정관읍 정관로 580, 2층 202-204호",
      "tel": "0517239500",
      "latitude": "35.32062942",
      "longitude": "129.1770764",
      "bus_stop": "버스정류장 : 정관농협기업지점",
      "holiday_open": true,
      "is_partnered": false
    }
  },
  {
    "model": "medical.medicalfacility",
    "pk": 218,
    "fields": {
      "name": "정관한의원",
      "type": "한의원",
      "address": "부산광역시 수영구 광남로 217 (민락동)",
      "tel": "0517576585",
      "latitude": "35.15898117",
      "longitude": "129.1226705",
      "bus_stop": "버스정류장: 동방사거리",
      "holiday_open": true,
      "is_partnered": false
    }
  },
  {
    "model": "medical.medicalfacility",
    "pk": 219,
    "fields": {
      "name": "정다운한의원",
      "type": "한의원",
      "address": "부산광역시 부산진구 동평로 94, 당감 메디칼센터 3층 (당감동)",
      "tel": "0518962100",
      "latitude": "35.16531965",
      "longitude": "129.039773",
      "bus_stop": "버스정류장: 부산당감동우체국",
      "holiday_open": true,
      "is_partnered": false
    }
  },
  {
    "model": "medical.medicalfacility",
    "pk": 220,
    "fields": {
      "name": "정다운한의원",
      "type": "한의원",
      "address": "부산광역시 기장군 장안읍 해맞이로 408",
      "tel": "0517278525",
      "latitude": "35.32839178",
      "longitude": "129.2805433",
      "bus_stop": "버스정류장: 하나로마트 건너편",
      "holiday_open": true,
      "is_partnered": false
    }
  },
  {
    "model": "medical.medicalfacility",
    "pk": 221,
    "fields": {
      "name": "인일한의원",
      "type": "한의원",
      "address": "부산광역시 남구 용호로 203 (용호동)",
      "tel": "0516236938",
      "latitude": "35.1140989",
      "longitude": "129.1111716",
      "bus_stop": "버스정류장: 남부산농협",
      "holiday_open": true,
      "is_partnered": false
    }
  },
  {
    "model": "medical.medicalfacility",
    "pk": 222,
    "fields": {
      "name": "인제한의원",
      "type": "한의원",
      "address": "부산광역시 부산진구 연수로 7 (양정동)",
      "tel": "0518521293",
      "latitude": "35.17342916",
      "longitude": "129.0721296",
      "bus_stop": "양정역 8번 출구",
      "holiday_open": true,
      "is_partnered": false
    }
  },
  {
    "model": "medical.medicalfacility",
    "pk": 223,
    "fields": {
      "name": "인토본한의원",
      "type": "한의원",
      "address": "부산광역시 부산진구 가야대로784번길 29 (부전동)",
      "tel": "0517145853",
      "latitude": "35.15612634",
      "longitude": "129.0573486",
      "bus_stop": "1,2호선 서면역 7번출구/롯데백화점 후문/여송빌딩 7층",
      "holiday_open": true,
      "is_partnered": false
    }
  },
  {
    "model": "medical.medicalfacility",
    "pk": 224,
    "fields": {
      "name": "인향한의원",
      "type": "한의원",
      "address": "부산광역시 북구 만덕1로10번길 6, 2층 (만덕동)",
      "tel": "0513376859",
      "latitude": "35.21430377",
      "longitude": "129.0363232",
      "bus_stop": "3호선 만덕역 4번출구",
      "holiday_open": true,
      "is_partnered": false
    }
  },
  {
    "model": "medical.medicalfacility",
    "pk": 225,
    "fields": {
      "name": "일광한의원",
      "type": "한의원",
      "address": "부산광역시 기장군 일광면 일광로 99, 3층 (시골밥상)",
      "tel": "07077241075",
      "latitude": "35.2653674",
      "longitude": "129.2330727",
      "bus_stop": "버스정류장: 일광우체국",
      "holiday_open": true,
      "is_partnered": false
    }
  },
  {
    "model": "medical.medicalfacility",
    "pk": 226,
    "fields": {
      "name": "일광한의원",
      "type": "한의원",
      "address": "부산광역시 수영구 광남로 126 (광안동)",
      "tel": "0517573800",
      "latitude": "35.1527356",
      "longitude": "129.116713",
      "bus_stop": "버스정류장: 광안리 해수욕장",
      "holiday_open": true,
      "is_partnered": false
    }
  },
  {
    "model": "medical.medicalfacility",
    "pk": 227,
    "fields": {
      "name": "일맥한의원",
      "type": "한의원",
      "address": "부산광역시 부산진구 가야대로 785, 9층 (부전동, 성영빌딩)",
      "tel": "0518161075",
      "latitude": "35.15812644",
      "longitude": "129.0574623",
      "bus_stop": "1,2호선 서면역 9번출구/ 인제메디칼센터 9층",
      "holiday_open": true,
      "is_partnered": false
    }
  },
  {
    "model": "medical.medicalfacility",
    "pk": 228,
    "fields": {
      "name": "일성한의원",
      "type": "한의원",
      "address": "부산광역시 사하구 감천로 46 (감천동)",
      "tel": "0512938275",
      "latitude": "35.09065164",
      "longitude": "128.9975218",
      "bus_stop": " ",
      "holiday_open": true,
      "is_partnered": false
    }
  },
  {
    "model": "medical.medicalfacility",
    "pk": 229,
    "fields": {
      "name": "일승한의원",
      "type": "한의원",
      "address": "부산광역시 해운대구 세실로 45, 405호 (좌동, 대승프라자)",
      "tel": "0517025180",
      "latitude": "35.16898947",
      "longitude": "129.1782872",
      "bus_stop": "2호선 장산역 3번출구",
      "holiday_open": true,
      "is_partnered": false
    }
  },
  {
    "model": "medical.medicalfacility",
    "pk": 230,
    "fields": {
      "name": "일심한의원",
      "type": "한의원",
      "address": "부산광역시 사하구 낙동대로 472 (하단동,로타리산업빌딩402호)",
      "tel": "0512080110",
      "latitude": "35.10695154",
      "longitude": "128.9683563",
      "bus_stop": "1호선 하단역 9번 출구",
      "holiday_open": true,
      "is_partnered": false
    }
  },
  {
    "model": "medical.medicalfacility",
    "pk": 231,
    "fields": {
      "name": "자경당한의원",
      "type": "한의원",
      "address": "부산광역시 연제구 중앙대로 1111, 위드타워 12층 1201호 (연산동)",
      "tel": "0518633377",
      "latitude": "35.18674355",
      "longitude": "129.0811433",
      "bus_stop": "1,3호선 연산역 7번출구",
      "holiday_open": true,
      "is_partnered": false
    }
  },
  {
    "model": "medical.medicalfacility",
    "pk": 232,
    "fields": {
      "name": "자담 한의원",
      "type": "한의원",
      "address": "부산광역시 연제구 중앙대로 1092, 2층 (연산동)",
      "tel": "0518671075",
      "latitude": "35.18504807",
      "longitude": "129.0812416",
      "bus_stop": "1,3호선 연산역 2번출구",
      "holiday_open": true,
      "is_partnered": false
    }
  },
  {
    "model": "medical.medicalfacility",
    "pk": 233,
    "fields": {
      "name": "자명한의원",
      "type": "한의원",
      "address": "부산광역시 동래구 충렬대로 405 (안락동)",
      "tel": "0515283413",
      "latitude": "35.19696921",
      "longitude": "129.1026701",
      "bus_stop": "버스정류장: 부산안락동우체국",
      "holiday_open": true,
      "is_partnered": false
    }
  },
  {
    "model": "medical.medicalfacility",
    "pk": 234,
    "fields": {
      "name": "자성대한의원",
      "type": "한의원",
      "address": "부산광역시 동구 조방로49번길 7 (범일동)",
      "tel": "0516320015",
      "latitude": "35.14011906",
      "longitude": "129.0602687",
      "bus_stop": "1호선 범일역 4번 출구",
      "holiday_open": true,
      "is_partnered": false
    }
  },
  {
    "model": "medical.medicalfacility",
    "pk": 235,
    "fields": {
      "name": "자연과한의원",
      "type": "한의원",
      "address": "부산광역시 부산진구 가야대로 781-1, 6층 (부전동)",
      "tel": "0518023004",
      "latitude": "35.15802126",
      "longitude": "129.0571207",
      "bus_stop": "1,2호선 서면역 9번 출구",
      "holiday_open": true,
      "is_partnered": false
    }
  },
  {
    "model": "medical.medicalfacility",
    "pk": 236,
    "fields": {
      "name": "자연과한의원",
      "type": "한의원",
      "address": "부산광역시 해운대구 센텀2로 25, 1001호 (우동, 센텀드림월드)",
      "tel": "0517314001",
      "latitude": "35.16694367",
      "longitude": "129.1329558",
      "bus_stop": "2호선 센텀시티역 9번출구",
      "holiday_open": true,
      "is_partnered": false
    }
  },
  {
    "model": "medical.medicalfacility",
    "pk": 237,
    "fields": {
      "name": "자연닮은한의원",
      "type": "한의원",
      "address": "부산광역시 남구 고동골로 29, 문현베스티움 상가 2층 209호 (문현동)",
      "tel": "0516271261",
      "latitude": "35.13899275",
      "longitude": "129.0704592",
      "bus_stop": "버스정류장: 감만동교차로/부산은행우암지점2층일부",
      "holiday_open": true,
      "is_partnered": false
    }
  },
  {
    "model": "medical.medicalfacility",
    "pk": 238,
    "fields": {
      "name": "자연드림한의원",
      "type": "한의원",
      "address": "부산광역시 사하구 장림번영로 41 (장림동)",
      "tel": "0512657588",
      "latitude": "35.08083406",
      "longitude": "128.9699332",
      "bus_stop": "버스정류장:장림시장",
      "holiday_open": true,
      "is_partnered": false
    }
  },
  {
    "model": "medical.medicalfacility",
    "pk": 239,
    "fields": {
      "name": "자연뜰한의원",
      "type": "한의원",
      "address": "부산광역시 해운대구 해운대로 814 (좌동, 세종월드프라자A동 410호,411호,412호)",
      "tel": "0517047911",
      "latitude": "35.1696715",
      "longitude": "129.1776713",
      "bus_stop": "2호선 장산역 10번출구",
      "holiday_open": true,
      "is_partnered": false
    }
  },
  {
    "model": "medical.medicalfacility",
    "pk": 240,
    "fields": {
      "name": "자연안에 한의원",
      "type": "한의원",
      "address": "부산광역시 연제구 월드컵대로 141, 동화빌딩 2,3층일부,12층 (연산동)",
      "tel": "0518610088",
      "latitude": "35.18613579",
      "longitude": "129.0805643",
      "bus_stop": "1,3호선 연산역 13번 출구/동화빌딩 2층",
      "holiday_open": true,
      "is_partnered": false
    }
  },
  {
    "model": "medical.medicalfacility",
    "pk": 241,
    "fields": {
      "name": "자연한의원",
      "type": "한의원",
      "address": "부산광역시 금정구 중앙대로1841번길 15 (구서동)",
      "tel": "0519117582",
      "latitude": "35.24844497",
      "longitude": "129.0909731",
      "bus_stop": "1호선 구서역 3번출구/명성메디컬센터 6층",
      "holiday_open": true,
      "is_partnered": false
    }
  },
  {
    "model": "medical.medicalfacility",
    "pk": 242,
    "fields": {
      "name": "자연향기한의원",
      "type": "한의원",
      "address": "부산광역시 동래구 명륜로112번길 21 (수안동)",
      "tel": "0515577512",
      "latitude": "35.20362676",
      "longitude": "129.0841348",
      "bus_stop": "4호선 수안역 5번 출구/버스정류장: 수안치안센터",
      "holiday_open": true,
      "is_partnered": false
    }
  },
  {
    "model": "medical.medicalfacility",
    "pk": 243,
    "fields": {
      "name": "자원당한의원",
      "type": "한의원",
      "address": "부산광역시 남구 문현로 69, 2층 (문현동, 대영빌딩)",
      "tel": "0516477775",
      "latitude": "35.14348965",
      "longitude": "129.0766745",
      "bus_stop": "버스정류장: 현대아파트, 현대주유소",
      "holiday_open": true,
      "is_partnered": false
    }
  },
  {
    "model": "medical.medicalfacility",
    "pk": 244,
    "fields": {
      "name": "자윤수한의원",
      "type": "한의원",
      "address": "부산광역시 남구 오륙도로 85, 202,203호 (용호동, 오륙도SK뷰2상가)",
      "tel": "0516263834",
      "latitude": "35.10211316",
      "longitude": "129.1167451",
      "bus_stop": "버스정류장:오륙도 SK뷰 아파트 202호, 203호",
      "holiday_open": true,
      "is_partnered": false
    }
  },
  {
    "model": "medical.medicalfacility",
    "pk": 245,
    "fields": {
      "name": "자윤한의원",
      "type": "한의원",
      "address": "부산광역시 해운대구 센텀1로 9, E202~3호 (우동, 롯데갤러리움센텀)",
      "tel": "0517142789",
      "latitude": "35.16784571",
      "longitude": "129.1309595",
      "bus_stop": "2호선 센텀시티역 13번출구",
      "holiday_open": true,
      "is_partnered": false
    }
  },
  {
    "model": "medical.medicalfacility",
    "pk": 246,
    "fields": {
      "name": "의료법인편강의료재단 편강한의원",
      "type": "한의원",
      "address": "부산광역시 부산진구 서면로 74 (부전동, 아이온시티17층1702호)",
      "tel": "0516367777",
      "latitude": "35.15721009",
      "longitude": "129.0581419",
      "bus_stop": "1,2호선 서면역 5,7번출구/아이온시티빌딩",
      "holiday_open": true,
      "is_partnered": false
    }
  },
  {
    "model": "medical.medicalfacility",
    "pk": 247,
    "fields": {
      "name": "의제한의원",
      "type": "한의원",
      "address": "부산광역시 사하구 제석로 72, 1층 (당리동)",
      "tel": "0512071818",
      "latitude": "35.10676767",
      "longitude": "128.9755389",
      "bus_stop": " ",
      "holiday_open": true,
      "is_partnered": false
    }
  },
  {
    "model": "medical.medicalfacility",
    "pk": 248,
    "fields": {
      "name": "이광덕한의원",
      "type": "한의원",
      "address": "부산광역시 부산진구 가야대로 484 (개금동)",
      "tel": "0519191075",
      "latitude": "35.15289014",
      "longitude": "129.0248969",
      "bus_stop": "버스정류장: 개금골목시장",
      "holiday_open": true,
      "is_partnered": false
    }
  },
  {
    "model": "medical.medicalfacility",
    "pk": 249,
    "fields": {
      "name": "이광주한의원",
      "type": "한의원",
      "address": "부산광역시 남구 진남로 4 (대연동, 2층)",
      "tel": "0519457575",
      "latitude": "35.13535682",
      "longitude": "129.092017",
      "bus_stop": "2호선 대연역 3,5번 출구",
      "holiday_open": true,
      "is_partnered": false
    }
  },
  {
    "model": "medical.medicalfacility",
    "pk": 250,
    "fields": {
      "name": "이동규한의원",
      "type": "한의원",
      "address": "부산광역시 수영구 호암로 7 (광안동)",
      "tel": "0517511187",
      "latitude": "35.15632978",
      "longitude": "129.1120756",
      "bus_stop": "2호선 광안역 6번출구",
      "holiday_open": true,
      "is_partnered": false
    }
  },
  {
    "model": "medical.medicalfacility",
    "pk": 251,
    "fields": {
      "name": "이동윤한의원",
      "type": "한의원",
      "address": "부산광역시 해운대구 해운대로383번길 5 (우동)",
      "tel": "0517415566",
      "latitude": "35.16951339",
      "longitude": "129.1386338",
      "bus_stop": "시립미술관역 6번출구",
      "holiday_open": true,
      "is_partnered": false
    }
  },
  {
    "model": "medical.medicalfacility",
    "pk": 252,
    "fields": {
      "name": "이로재한의원",
      "type": "한의원",
      "address": "부산광역시 사하구 다대로 692, 2층 (다대동)",
      "tel": "0512640150",
      "latitude": "35.04844266",
      "longitude": "128.9658666",
      "bus_stop": "1호선 다대포 해수욕장역 3번 출구",
      "holiday_open": true,
      "is_partnered": false
    }
  },
  {
    "model": "medical.medicalfacility",
    "pk": 253,
    "fields": {
      "name": "이루다한의원",
      "type": "한의원",
      "address": "부산광역시 부산진구 부전로66번길 12, 3층 (부전동)",
      "tel": "0517111259",
      "latitude": "35.15577406",
      "longitude": "129.0553684",
      "bus_stop": "2호선 서면역 7번출구",
      "holiday_open": true,
      "is_partnered": false
    }
  },
  {
    "model": "medical.medicalfacility",
    "pk": 254,
    "fields": {
      "name": "이상호한의원",
      "type": "한의원",
      "address": "부산광역시 해운대구 해운대로61번길 98, 명가이불 2층 (반여동)",
      "tel": "0517818390",
      "latitude": "35.19473387",
      "longitude": "129.1290375",
      "bus_stop": "버스정류장: 반여시장",
      "holiday_open": true,
      "is_partnered": false
    }
  },
  {
    "model": "medical.medicalfacility",
    "pk": 255,
    "fields": {
      "name": "이성록한의원",
      "type": "한의원",
      "address": "부산광역시 사상구 대동로 107, 명정빌딩 3층 (학장동)",
      "tel": "0513138575",
      "latitude": "35.13902633",
      "longitude": "128.9792162",
      "bus_stop": "버스정류장: 엄궁치안센터",
      "holiday_open": true,
      "is_partnered": false
    }
  },
  {
    "model": "medical.medicalfacility",
    "pk": 256,
    "fields": {
      "name": "이성수한의원",
      "type": "한의원",
      "address": "부산광역시 동구 범일로 101 (범일동)",
      "tel": "0516337577",
      "latitude": "35.13898451",
      "longitude": "129.0591017",
      "bus_stop": "1호선 범일역 1번 출구",
      "holiday_open": true,
      "is_partnered": false
    }
  },
  {
    "model": "medical.medicalfacility",
    "pk": 257,
    "fields": {
      "name": "이성우한의원",
      "type": "한의원",
      "address": "부산광역시 사하구 낙동대로 261",
      "tel": "0512051546",
      "latitude": "35.09892811",
      "longitude": "128.9885412",
      "bus_stop": "버스정류장: 사하초등삼거리",
      "holiday_open": true,
      "is_partnered": false
    }
  },
  {
    "model": "medical.medicalfacility",
    "pk": 258,
    "fields": {
      "name": "이승하한의원",
      "type": "한의원",
      "address": "부산광역시 동래구 사직북로19번길 18, 8층 (사직동)",
      "tel": "0515065577",
      "latitude": "35.19753503",
      "longitude": "129.0595438",
      "bus_stop": "버스정류장: 사직사거리",
      "holiday_open": true,
      "is_partnered": false
    }
  },
  {
    "model": "medical.medicalfacility",
    "pk": 259,
    "fields": {
      "name": "이음한의원",
      "type": "한의원",
      "address": "부산광역시 동래구 반송로 220-1 (안락동)",
      "tel": "0515317510",
      "latitude": "35.20037192",
      "longitude": "129.0982137",
      "bus_stop": "4호선 충렬사역 4번출구",
      "holiday_open": true,
      "is_partnered": false
    }
  },
  {
    "model": "medical.medicalfacility",
    "pk": 260,
    "fields": {
      "name": "이일돈한의원",
      "type": "한의원",
      "address": "부산광역시 서구 대영로73번길 10",
      "tel": "0512437000",
      "latitude": "35.11105134",
      "longitude": "129.0190627",
      "bus_stop": "1호선 동대신동역 3번출구",
      "holiday_open": true,
      "is_partnered": false
    }
  },
  {
    "model": "medical.medicalfacility",
    "pk": 261,
    "fields": {
      "name": "이정원한의원",
      "type": "한의원",
      "address": "부산광역시 영도구 태종로 381 (청학동)",
      "tel": "0514181075",
      "latitude": "35.09312825",
      "longitude": "129.0655047",
      "bus_stop": "버스정류장: 청학화신아파트 건너편",
      "holiday_open": true,
      "is_partnered": false
    }
  },
  {
    "model": "medical.medicalfacility",
    "pk": 262,
    "fields": {
      "name": "이지스한의원",
      "type": "한의원",
      "address": "부산광역시 부산진구 서전로 25, 502호 (전포동, 이오스프라자)",
      "tel": "0518091075",
      "latitude": "35.15796437",
      "longitude": "129.0625859",
      "bus_stop": "1,2호선 서면역 8번출구/이오스프라자 502호",
      "holiday_open": true,
      "is_partnered": false
    }
  },
  {
    "model": "medical.medicalfacility",
    "pk": 263,
    "fields": {
      "name": "이창훈한의원",
      "type": "한의원",
      "address": "부산광역시 남구 전포대로 71 (문현동, 호암빌딩202호)",
      "tel": "0516478275",
      "latitude": "35.14318402",
      "longitude": "129.066399",
      "bus_stop": "2호선 국제금융센터부산은행역 1번출구",
      "holiday_open": true,
      "is_partnered": false
    }
  },
  {
    "model": "medical.medicalfacility",
    "pk": 264,
    "fields": {
      "name": "이학철한의원",
      "type": "한의원",
      "address": "부산광역시 부산진구 당감로 32 (당감동)",
      "tel": "0518963883",
      "latitude": "35.16443817",
      "longitude": "129.0395532",
      "bus_stop": "버스정류장: 당감초등학교",
      "holiday_open": true,
      "is_partnered": false
    }
  },
  {
    "model": "medical.medicalfacility",
    "pk": 265,
    "fields": {
      "name": "이혜진한의원",
      "type": "한의원",
      "address": "부산광역시 사하구 낙동대로 225 (괴정동)",
      "tel": "0512035444",
      "latitude": "35.09957297",
      "longitude": "128.9923549",
      "bus_stop": "1호선 괴정역 2번출구",
      "holiday_open": true,
      "is_partnered": false
    }
  },
  {
    "model": "medical.medicalfacility",
    "pk": 266,
    "fields": {
      "name": "인다라한의원",
      "type": "한의원",
      "address": "부산광역시 연제구 월드컵대로 149, 8층 (연산동)",
      "tel": "0518515075",
      "latitude": "35.18641244",
      "longitude": "129.0798653",
      "bus_stop": "1호선 연산역 3번출구",
      "holiday_open": true,
      "is_partnered": false
    }
  },
  {
    "model": "medical.medicalfacility",
    "pk": 267,
    "fields": {
      "name": "인덕한의원",
      "type": "한의원",
      "address": "부산광역시 영도구 절영로29번길 5 (대교동2가)",
      "tel": "0514152882",
      "latitude": "35.09170213",
      "longitude": "129.0398015",
      "bus_stop": " ",
      "holiday_open": true,
      "is_partnered": false
    }
  },
  {
    "model": "medical.medicalfacility",
    "pk": 268,
    "fields": {
      "name": "인동한의원",
      "type": "한의원",
      "address": "부산광역시 해운대구 중동1로 44 (중동)",
      "tel": "0517423003",
      "latitude": "35.16176228",
      "longitude": "129.1631893",
      "bus_stop": "인근 지하철역 2호선 해운대역",
      "holiday_open": true,
      "is_partnered": false
    }
  },
  {
    "model": "medical.medicalfacility",
    "pk": 269,
    "fields": {
      "name": "인성한의원",
      "type": "한의원",
      "address": "부산광역시 사하구 낙동대로 445 (하단동)",
      "tel": "0512045775",
      "latitude": "35.1046778",
      "longitude": "128.9697554",
      "bus_stop": "1호선 하단역 12번 출구/버스정류장: 하단교차로",
      "holiday_open": true,
      "is_partnered": false
    }
  },
  {
    "model": "medical.medicalfacility",
    "pk": 270,
    "fields": {
      "name": "인수한의원",
      "type": "한의원",
      "address": "부산광역시 연제구 중앙대로 1067-1 (연산동)",
      "tel": "0518635355",
      "latitude": "35.18354236",
      "longitude": "129.0792673",
      "bus_stop": "1,3호선 연산역 1번출구/한국투자증권 3층",
      "holiday_open": true,
      "is_partnered": false
    }
  },
  {
    "model": "medical.medicalfacility",
    "pk": 271,
    "fields": {
      "name": "인애한의원",
      "type": "한의원",
      "address": "부산광역시 부산진구 중앙대로 707, 9층 (부전동)",
      "tel": "0518054200",
      "latitude": "35.15584328",
      "longitude": "129.0587937",
      "bus_stop": "1호선 서면역 1번 출구",
      "holiday_open": true,
      "is_partnered": false
    }
  },
  {
    "model": "medical.medicalfacility",
    "pk": 272,
    "fields": {
      "name": "위튼한의원",
      "type": "한의원",
      "address": "부산광역시 동래구 중앙대로 1319 (온천동)",
      "tel": "0515313320",
      "latitude": "35.2050459",
      "longitude": "129.0776413",
      "bus_stop": "1호선 동래역 1번출구",
      "holiday_open": true,
      "is_partnered": false
    }
  },